이름,종류,위도,경도,도로명주소,전화번호,휴무,영업시간
1004 약국,동물약국,37.64454276,126.886336,경기도 고양시 덕양구 동세로 19,23815052,"매주 토, 일, 법정공휴일",월~금 09:00~18:00
1004섬수석미술관,미술관,34.8800925,125.996874,전라남도 신안군 자은면 자은서부2길 508-68,612408359,매주 월요일,화~일 09:00~18:00
100세건강약국,동물약국,37.40715043,126.914837,경기도 안양시 만안구 안양로 408,314651320,"매주 일요일, 법정공휴일","월~금 09:00~21:00, 토 09:00~20:00"
100세약국,동물약국,37.53325958,126.903741,서울특별시 영등포구 양평로 24,226788217,"매주 일요일, 법정공휴일","월~금 08:30~21:00, 토 08:30~18:30"
100세약국,동물약국,37.27627151,127.030911,경기도 수원시 팔달구 경수대로 568,312394801,"매주 일요일, 법정공휴일","월~금 09:00~19:00, 토 09:00~15:00"
100세약국,동물약국,37.4620717,126.708644,인천광역시 남동구 남동대로 892,324277585,"매주 토, 일",월~금 08:30~22:00
100코달리 와인바,카페,37.56330525,127.016417,서울특별시 중구 다산로38길 11,50713466774,매주 월요일,화~일 18:00~02:00
100평 광장약국,동물약국,37.75195739,127.049286,경기도 의정부시 동일로 732,318471269,"매주 토, 일, 법정공휴일",월~금 10:00~18:00
107page,카페,36.15863384,128.30627,경상북도 구미시 봉곡서로 87-34,50713317179,매주 월요일,화~일 12:00~22:00
119동물병원,동물병원,35.85715733,128.466544,대구광역시 달성군 다사읍 달구벌대로 893,535851195,연중무휴,"월~금 09:30~18:30, 토 09:30~16:00, 일 12:00~12:30, 법정공휴일 09:30~16:00"
153약국,동물약국,36.50271902,127.250023,세종특별자치시 달빛로 43,50713691531,"매주 일요일, 법정공휴일","월~금 09:00~18:00, 토 09:00~13:00"
1723 카페,카페,35.81263594,127.151717,전라북도 전주시 완산구 오목대길 83,632881723,연중무휴,매일 10:30~22:00
1919봄,카페,35.50542551,128.789995,경상남도 밀양시 산외면 산외로 191,50713469661,매주 화요일,수~월 11:00~21:00
1974유달동미스박,카페,34.80393238,126.425756,전라남도 목포시 비파로 61,612851974,매주 월요일,화~일 11:00~23:00
1번가온누리약국,동물약국,37.6376755,128.559285,강원도 평창군 진부면 진부중앙로 74-2,333337300,연중무휴,"월~화 08:40~18:00, 수 08:30~21:30, 목~금 08:30~17:30, 토~일, 법정공휴일 08:30~13:30"
1층메디컬약국,동물약국,37.45304289,126.901712,서울특별시 금천구 시흥대로 214,28911112,연중무휴,"월~수, 금 09:00~20:00, 목 09:00~20:30, 토 09:00~15:30, 일 09:00~13:30, 법정공휴일 10:00~16:00"
1층이화약국,동물약국,37.5665905,127.024082,서울특별시 성동구 왕십리로 410,7077981281,매주 일요일,"월, 목 09:00~20:00, 화, 목 09:00~19:00, 수 09:00~18:00, 토 09:00~14:00"
1호선범일약국,동물약국,35.14072278,129.059343,부산광역시 동구 범일로 지하 108,516370421,"매주 일요일, 법정공휴일","월~금 09:00~19:00, 토 09:00~14:00"
202펫푸드,반려동물용품,35.15012154,128.553719,경상남도 창원시 마산합포구 현동6길 94,,매주 월~화,수~일 11:30~19:00
21세기 동규약국,동물약국,37.146604,127.068648,경기도 오산시 대원로 1,313742943,연중무휴,"월~금 08:30~21:00, 토 08:30~21:00, 일 12:00~21:00, 법정공휴일 12:00~21:00"
21세기 동물병원,동물병원,35.86154545,127.114938,전라북도 전주시 덕진구 시천로 26,632511015,,
21세기 세계로약국,동물약국,37.44475147,127.158591,경기도 성남시 중원구 산성대로372번길 14,317430624,연중무휴,"월~금 08:30~20:30, 토 08:30~20:00, 일 09:30~19:00, 법정공휴일 09:30~20:00"
21세기 약국,동물약국,37.47450425,126.866592,경기도 광명시 오리로 853,28977470,"매주 일요일, 법정공휴일","월~금 09:00~19:30, 토 09:00~15:30"
21세기 우리네약국,동물약국,35.13669418,129.072687,부산광역시 남구 수영로 43,516468260,"매주 일요일, 법정공휴일","월~금 09:00~19:30, 토 09:00~16:30"
21세기 정약국,동물약국,37.25596473,127.011044,경기도 수원시 권선구 정조로 523,312343847,"매주 토, 일, 법정공휴일",월~금 08:30~20:30
21세기건강약국,동물약국,35.17942758,126.915844,광주광역시 북구 면앙로32번길 1,622615627,매주 일요일,"월~토 09:00~22:00, 법정공휴일 09:00~22:00"
21세기동물병원,동물병원,37.52831582,126.999196,서울특별시 용산구 보광로 46,27496750,매주 일요일,월~토 09:00~18:00
21세기동물병원,동물병원,34.81064748,126.417274,전라남도 목포시 영산로 503,612790006,,
21세기맑은약국,동물약국,37.50788819,126.732054,인천광역시 부평구 길주로 623,323632201,매주 일요일,월~토 10:00~21:00
21세기새롬약국,동물약국,37.63522599,126.831888,경기도 고양시 덕양구 화정로 53,319654677,연중무휴,"월~금 09:00~21:00, 토 09:00~18:00, 일, 법정공휴일 09:00~21:00"
21세기약국,동물약국,37.46054362,126.733548,인천광역시 남동구 만수로 47,324683737,연중무휴,"월~금 08:30~20:00, 토 08:30~15:00, 일 10:00~20:00, 법정공휴일 10:00~20:00"
21세기약국,동물약국,37.88022669,127.750636,강원도 춘천시 보안길 64-1,332550990,"매주 일요일, 법정공휴일","월~금 09:00~19:00, 토 09:00~13:00"
21세기약국,동물약국,36.11678861,128.339361,경상북도 구미시 송정대로 5,544522121,연중무휴,"월~금 09:00~23:30, 토 09:00~23:30, 일 10:30~23:30, 법정공휴일 09:00~23:30"
21세기약국,동물약국,35.21170799,129.07748,부산광역시 동래구 중앙대로 1393,516682751,연중무휴,"월~토 09:00~21:00, 일 11:00~21:00"
21세기약국,동물약국,35.13364608,126.87483,광주광역시 서구 금화로 240,626528825,연중무휴,"월~금 10:00~22:00, 토 10:00~22:00, 일 10:00~22:00, 법정공휴일 10:00~22:00"
21세기종합동물병원,동물병원,35.8859379,128.636764,대구광역시 동구 아양로 216,539590121,,
21세기종합동물병원,동물병원,35.21075927,129.008783,부산광역시 북구 만덕대로 34,513650075,연중무휴,"월~금 9:00~20:00, 토~일 9:00~18:00"
21세기종합약국,동물약국,35.83802026,127.132838,전라북도 전주시 덕진구 기린대로 400-8,632744949,"매주 일요일, 법정공휴일","월~금 09:00~19:00, 토 09:00~19:00"
21C 세계로약국,동물약국,37.54204619,126.840751,서울특별시 강서구 화곡로 173,226070624,연중무휴,"월~금 08:30~20:30, 토, 법정공휴일 08:30~20:00, 일 09:30~19:00"
21c청학보건당,동물약국,37.7086949,127.118397,경기도 남양주시 별내면 청학로중앙길 9,318211653,연중무휴,월~일 법정공휴일 09:00~22:00
228약국,동물약국,35.87018992,128.596901,대구광역시 중구 동성로2길 95,534222228,매주 일요일,"월~금 09:00~20:30, 토 09:00~17:00"
22세기 약국,동물약국,35.85901475,128.624455,대구광역시 수성구 달구벌대로 지하 2396,537416467,"매주 일요일, 법정공휴일","월~금 08:30~20:30, 토 09:00~19:00"
22세기 약국,동물약국,34.93990631,127.508761,전라남도 순천시 팔마로 222,537416467,매주 일요일,"월~금 08:00~20:00, 토 09:00~19:00"
24시 강서 젠틀리동물의료센터,동물병원,37.55904001,126.820063,서울특별시 강서구 마곡중앙1로 72,226628111,연중무휴,매일 00:00~24:00
24시 건국 본 동물병원,동물병원,37.44824636,126.679984,인천광역시 미추홀구 인하로 287,328640075,연중무휴,매일 00:00~24:00
24시 굿케어동물의료센터,동물병원,37.48000009,126.956867,서울특별시 관악구 남부순환로 1861,269562475,연중무휴,매일 00:00~24:00
24시 글로리 동물병원,동물병원,37.47674386,126.898256,서울특별시 금천구 시흥대로 483,28558575,연중무휴,매일 00:00~24:00
24시 당신의 동물의료센터,동물병원,37.30062503,126.983998,경기도 수원시 장안구 천천로 100,312686575,연중무휴,매일 00:00~24:00
24시 더나은 동물메디컬 센터,동물병원,34.88298876,128.625276,경상남도 거제시 동문천로 47,557161175,연중무휴,"월~토 10:00~21:00, 일 11:00~21:00"
24시 더블유 동물의료센터,동물병원,37.53238773,126.647045,인천광역시 서구 청라커낼로260번길 27,325658270,연중무휴,매일 10:00~21:00
24시 더원 동물병원,동물병원,37.59299096,126.712012,인천광역시 서구 발산로 41,325696677,연중무휴,매일 00:00~24:00
24시 더케어 동물의료센터,동물병원,37.60332974,127.147316,경기도 구리시 경춘로 294,315168585,연중무휴,매일 00:00~24:00
24시 동물응급의료센터,동물병원,37.59532179,127.079577,서울특별시 중랑구 망우로 247,24947582,연중무휴,매일 00:00~24:00
24시 동탄 이음동물의료센터,동물병원,37.16873878,127.108433,경기도 화성시 동탄대로6길 15,318313513,연중무휴,매일 00:00~24:00
24시 라움동물의료센터,동물병원,36.99887465,127.114167,경기도 평택시 비전5로 20-24,316925022,연중무휴,매일 00:00~24:00
24시 라인동물의료센터,동물병원,37.65267981,126.896113,경기도 고양시 덕양구 동송로 70,23812475,연중무휴,매일 00:00~24:00
24시 리본동물의료센터,동물병원,35.20291604,129.080986,부산광역시 동래구 충렬대로 194,517110006,매주 일요일,"월~금 09:30~19:00, 토 09:30~19:00"
24시 멍냥마켓 파장점,반려동물용품,37.30752086,126.991039,경기도 수원시 장안구 파장로 96,,연중무휴,매일 00:00~24:00
24시 명동물메디컬센터,동물병원,37.50156787,126.847162,서울특별시 구로구 남부순환로 775,226195102,연중무휴,매일 00:00~24:00
24시 모두의동물병원,동물병원,37.4616896,126.880189,경기도 광명시 하안로 289,269512475,연중무휴,매일 00:00~24:00
24시 모란동물 메디컬센터,동물병원,37.39940493,127.273675,경기도 광주시 경충대로 1448,317651100,연중무휴,매일 00:00~24:00
24시 무인 애완용품 펫싸롱 4호점,반려동물용품,37.75328223,127.043409,경기도 의정부시 평화로 689,318482711,연중무휴,매일 00:00~24:00
24시 무인 애완용품 펫싸롱 의정부점,반려동물용품,37.74353429,127.035937,경기도 의정부시 호국로 1187-2,318552710,연중무휴,매일 00:00~24:00
24시 블레스동물메디컬센터,동물병원,37.26968181,127.152921,경기도 용인시 기흥구 동백3로11번길 9,315460942,연중무휴,매일 00:00~24:00
24시 블루밍 동물병원,동물병원,35.17331179,126.876256,광주광역시 북구 대자로 36,624167975,연중무휴,매일 08:00~24:00
24시 사람앤동물메디컬센터,동물병원,37.31268393,127.079742,경기도 용인시 수지구 수지로 124,312620306,연중무휴,매일 00:00~24:00
24시 산들산들 동물병원,동물병원,37.55097463,126.956497,서울특별시 마포구 마포대로16길 7,23933588,연중무휴,"월~금 10:00~24:00, 토~일 10:00~20:00"
24시 서울 탑 동물병원,동물병원,37.51774297,126.853643,서울특별시 양천구 중앙로 237,226018875,연중무휴,매일 09:00~21:00
24시 서울YES동물병원,동물병원,37.33174883,127.118347,경기도 용인시 수지구 현암로 81,312721313,연중무휴,매일 00:00~24:00
24시 성심동물메디컬센터,동물병원,36.35306883,127.345317,대전광역시 유성구 계룡로 131,427197566,연중무휴,매일 00:00~24:00
24시 센텀동물메디컬센터 연산점,동물병원,35.18442734,129.080855,부산광역시 연제구 중앙대로 1084,517118253,연중무휴,매일 00:00~24:00
24시 소래동물병원,동물병원,37.40010792,126.733313,인천광역시 남동구 소래역남로16번길 75,324383227,연중무휴,매일 00:00~24:00
24시 송도힐 동물메디컬센터,동물병원,37.39661133,126.651897,인천광역시 연수구 컨벤시아대로 55,328347275,연중무휴,매일 00:00~24:00
24시 숨 동물병원,동물병원,37.25872973,127.029633,경기도 수원시 권선구 권선로 715,315482475,연중무휴,매일 00:00~24:00
24시 스마트동물병원,동물병원,37.52069647,127.029989,서울특별시 강남구 도산대로 213,25490275,연중무휴,매일 00:00~24:00
24시 시유동물메디컬센터,동물병원,37.52000492,126.969872,서울특별시 용산구 이촌로64길 24,27930075,연중무휴,매일 00:00~24:00
24시 신도림S동물의료센터,동물병원,37.50688385,126.884037,서울특별시 구로구 경인로 619-3,269493575,연중무휴,매일 00:00~24:00
24시 쓰담쓰담 동물메디컬 센터,동물병원,37.27125211,127.107475,경기도 용인시 기흥구 중부대로 364,315484480,연중무휴,매일 00:00~24:00
24시 아이동물메디컬센터,동물병원,37.52567419,126.804557,경기도 부천시 소사로 779,326775262,연중무휴,매일 00:00~24:00
24시 아프리카동물병원,동물병원,37.30174884,126.81352,경기도 안산시 단원구 원포공원2로 35,314867533,연중무휴,매일 00:00~24:00
24시 안박동물병원,동물병원,37.56011704,126.856339,서울특별시 강서구 양천로 510,236647511,매주 일요일,월~토 10:00~19:00
24시 애견미용,미용,37.48254755,126.788203,경기도 부천시 경인로 294,,연중무휴,
24시 애니동물병원,동물병원,37.58399292,127.019824,서울특별시 성북구 보문로 99,29268275,연중무휴,매일 00:00~24:00
24시 양주 힐 동물의료센터,동물병원,37.82121755,127.097614,경기도 양주시 옥정동로7길 30,318598275,연중무휴,매일 00:00~24:00
24시 언제나 동물병원,동물병원,35.18788739,126.890426,광주광역시 북구 하백로5번길 1,625710011,매주 일요일,"월~금 09:00~19:00, 토 09:00~17:00"
24시 오케이 동물병원,동물병원,37.41511724,126.618222,인천광역시 연수구 랜드마크로 68,328327975,연중무휴,매일 09:00~22:00
24시 온누리동물메디컬센터,동물병원,37.31915777,126.829878,경기도 안산시 단원구 광덕대로 251,314877500,연중무휴,매일 00:00~24:00
24시 와이즈 동물메디컬센터,동물병원,37.55205316,127.20862,경기도 하남시 덕풍동로 111-50,317918253,연중무휴,매일 00:00~24:00
24시 웰니스 동물 의료센터,동물병원,37.49734229,126.775962,경기도 부천시 부흥로303번길 62,322017575,연중무휴,매일 00:00~24:00
24시 위드유 동물의료센터,동물병원,37.4365607,126.801609,경기도 시흥시 은계번영길 1,50713534975,연중무휴,매일 00:00~24:00
24시 위드힐동물메디컬센터,동물병원,37.65823066,127.125068,경기도 남양주시 두물로11번길 42,315233256,연중무휴,매일 00:00~24:00
24시 이지동물의료센터,동물병원,37.48483404,126.808916,경기도 부천시 부일로 712,323487975,연중무휴,매일 00:00~24:00
24시 인천동물병원 치료해주오,동물병원,37.40145862,126.7104,인천광역시 남동구 논현로46번길 22,50713721432,연중무휴,매일 10:00~19:00
24시 일산우리 동물의료센터,동물병원,37.67090741,126.75853,경기도 고양시 일산서구 중앙로 1455,319135550,연중무휴,매일 00:00~24:00
24시 좋은나라애견본부 고양점,반려동물용품,37.63636322,126.815095,경기도 고양시 덕양구 대주로 103-10,,연중무휴,매일 00:00~24:00
24시 지구촌 동물메디컬 센터,동물병원,37.49878906,126.884786,서울특별시 구로구 구로중앙로31길 30,28697582,연중무휴,매일 00:00~24:00
24시 청담우리 동물병원,동물병원,37.51449135,127.052853,서울특별시 강남구 삼성로 614,25417515,연중무휴,매일 00:00~24:00
24시 청주 고려동물메디컬센터,동물병원,36.63525381,127.475885,충청북도 청주시 서원구 사직대로 256,50713425678,연중무휴,매일 00:00~24:00
24시 청주이음동물의료센터,동물병원,36.63534918,127.423066,충청북도 청주시 흥덕구 2순환로 1112,437153133,연중무휴,매일 00:00~24:00
24시 팔용feel동물병원,동물병원,35.2521585,128.619969,경상남도 창원시 의창구 평산로 102,552551275,"매주 일요일, 5월 5일, 6월 6일, 크리스마스","월~금 10:00~19:30, 토 10:00~17:30, 법정공휴일 10:00~17:00"
24시 폴 동물병원,동물병원,37.37056133,127.107512,경기도 성남시 분당구 성남대로 385,317177558,연중무휴,매일 00:00~24:00
24시 휴동물의료센터,동물병원,35.16170934,129.062901,부산광역시 부산진구 동성로 152,518196061,연중무휴,매일 00:00~24:00
24시 SNC 동물메디컬센터,동물병원,37.4974084,127.038878,서울특별시 강남구 논현로 416,25627582,연중무휴,매일 00:00~24:00
24시간 대전동물메디컬센터 숲,동물병원,36.35922621,127.352719,대전광역시 유성구 한밭대로492번길 16-8,428267584,연중무휴,매일 00:00~24:00
24시꿈동물병원,동물병원,37.26324679,127.024704,경기도 수원시 권선구 경수대로 411,312227617,연중무휴,매일 00:00~24:00
24시노아동물메디컬센터,동물병원,35.15679978,126.913133,광주광역시 동구 독립로 292,622220075,연중무휴,매일 00:00~24:00
24시더나은동물메디컬센터,반려동물용품,34.88298876,128.625276,경상남도 거제시 동문천로 47,557161175,연중무휴,매일 00:00~24:00
24시도안동물메디컬센터,동물병원,36.30523673,127.351851,대전광역시 서구 계백로 1159,427101502,연중무휴,매일 00:00~24:00
24시동물병원,동물병원,37.27910195,127.111018,경기도 용인시 기흥구 구갈로 53,312817585,연중무휴,"월~금 09:00~22:30, 토 09:00~20:30, 일 10:00~18:30"
24시동물병원,동물병원,33.49271794,126.530033,제주특별자치도 제주시 연삼로 353,647022475,"매주 토, 일",월~금 09:00~19:00
24시동탄윌동물의료센터,동물병원,37.20232544,127.071583,경기도 화성시 동탄반석로 156,318313531,연중무휴,매일 00:00~24:00
24시똑똑똑 동물메디컬센터,동물병원,33.49301685,126.490745,제주특별자치도 제주시 도령로 129,647497585,연중무휴,매일 00:00~24:00
24시똑똑똑동물메디컬센터,동물병원,33.49301685,126.490745,제주특별자치도 제주시 도령로 129,647497585,연중무휴,매일 00:00~24:00
24시루시드동물메디컬센터,동물병원,37.60958992,127.030683,서울특별시 강북구 월계로 3,29417900,연중무휴,매일 00:00~24:00
24시마음든든동물병원,동물병원,37.41843093,126.911907,경기도 안양시 만안구 경수대로 1234,314742475,연중무휴,매일 09:30~22:00
24시멍냥마켓,반려동물용품,37.27619912,126.939918,경기도 수원시 권선구 서수원로577번길 305,50714070729,연중무휴,매일 00:00~24:00
24시멍냥마켓 매탄점,반려동물용품,37.2737207,127.046493,경기도 수원시 영통구 중부대로 282,50713225077,연중무휴,매일 00:00~24:00
24시배곧스마트동물의료센터,동물병원,37.37026025,126.729386,경기도 시흥시 배곧3로 86,314321224,연중무휴,매일 00:00~24:00
24시보듬동물병원,동물병원,37.75320476,128.894037,강원도 강릉시 경강로 2070,336557975,연중무휴,매일 09:00~24:00
24시분당리더스동물의료원,동물병원,37.34005352,127.108398,경기도 성남시 분당구 성남대로 45,317118275,연중무휴,매일 00:00~24:00
24시새벽약국,동물약국,35.19604125,126.820273,광주광역시 광산구 장덕로95번길 16,50713954500,연중무휴,매일 14:00~02:00
24시센트럴동물메디컬센터,동물병원,37.5586754,127.033737,서울특별시 성동구 고산자로 207,233957975,연중무휴,매일 00:00~24:00
24시스마일동물병원,동물병원,37.27321474,127.453037,경기도 이천시 구만리로 177,316337582,연중무휴,매일 00:00~24:00
24시스마트동물메디컬센터,동물병원,37.59978536,126.918127,서울특별시 은평구 은평로 93,23877582,연중무휴,매일 00:00~24:00
24시쎈텀동물병원,동물병원,37.59384607,126.763954,경기도 김포시 고촌읍 수기로 109,319928275,연중무휴,매일 00:00~24:00
24시아프리카동물메디컬센터,동물병원,37.55820284,126.844923,서울특별시 강서구 공항대로 335,236657975,연중무휴,매일 00:00~24:00
24시알파동물메디컬센터,동물병원,35.85921474,128.556462,대구광역시 서구 서대구광역시로 15,535727585,연중무휴,매일 00:00~24:00
24시약국,동물약국,34.85760248,128.429403,경상남도 통영시 안개로 9,556424006,법정공휴일,"월~토 08:30~24:00, 일 14:00~24:00"
24시연동물의료센터,동물병원,37.54293761,126.842277,서울특별시 강서구 화곡로 191,50713267553,연중무휴,매일 00:00~24:00
24시예담동물의료센터,동물병원,37.60958089,126.916793,서울특별시 은평구 연서로 122,269527519,연중무휴,매일 00:00~24:00
24시예스동물병원,동물병원,37.5071157,127.009873,서울특별시 서초구 잠원로 24,25343475,연중무휴,"월~금 10:50~19:30, 토, 법정공휴일 11:00~18:00"
24시위드동물병원,동물병원,37.34496709,126.738508,경기도 시흥시 정왕대로 230,314888075,매주 일요일,"월~금 10:00~19:00, 토 10:00~16:00"
24시잠실ON동물의료센터,동물병원,37.51156036,127.079181,서울특별시 송파구 올림픽로 76,24180724,연중무휴,매일 00:00~24:00
24시지구촌동물메디컬센터,동물병원,37.49878906,126.884786,서울특별시 구로구 구로중앙로31길 30,28697582,연중무휴,매일 09:00~23:00
24시청주i동물병원,동물병원,36.6658687,127.493092,충청북도 청주시 청원구 충청대로 103,432149975,연중무휴,매일 09:00~24:00
24시큰사랑동물병원,동물병원,37.27531606,127.449676,경기도 이천시 중리천로 135,3180113690,연중무휴,매일 00:00~24:00
24시프라임동물병원,동물병원,35.81030584,128.515298,대구광역시 달서구 비슬로 2746,536319966,연중무휴,"월~수, 금 09:00~02:00, 목 09:00~22:00, 토 09:00~24:00, 일 09:00~19:00"
24시해든동물메디컬센터,동물병원,37.50126977,126.777251,경기도 부천시 신흥로 190,327157579,연중무휴,매일 00:00~24:00
24시OK동물병원,동물병원,37.49556174,127.049817,서울특별시 강남구 도곡로51길 4,25697582,연중무휴,매일 09:00~21:00
24시SD동물영상의료센터,동물병원,37.56478,127.02471,서울특별시 중구 왕십리로 407,220390303,연중무휴,매일 00:00~24:00
25세 동물병원,동물병원,36.00078986,128.408532,경상북도 칠곡군 왜관읍 석전로7길 1,549740975,매주 일요일,"월~금 09:00~19:00, 토 09:00~14:00"
25시 동물병원,동물병원,37.45604359,127.162964,경기도 성남시 중원구 산성대로504번길 1,317310025,매주 일요일,"월~금 09:00~19:30, 토 09:00~17:00"
25시 동물병원,동물병원,35.13651461,129.071421,부산광역시 남구 수영로 34,516350402,매주 일요일,"월~금 09:30~19:00, 토 09:30~17:00"
25시 종합동물병원,동물병원,37.149027,127.072204,경기도 오산시 성호대로 97,313781114,매주 일요일,"월~금 09:00~19:00, 토 09:00~15:00"
25시 죽곡동물병원,동물병원,35.85497058,128.464009,대구광역시 달성군 다사읍 대실역남로 34,535878765,매주 일요일,"월~금 10:00~19:00, 화, 목 11:00~19:00, 토 10:00~19:00"
25시동물병원,동물병원,37.64777726,127.077579,서울특별시 노원구 한글비석로8길 16,29350075,"매주 토, 일",월~금 10:00~20:00
25시동물의료센터,동물병원,37.50553777,127.089412,서울특별시 송파구 삼전로 80,24191351,연중무휴,매일 00:00~24:00
25시종합동물병원,동물병원,35.8248221,128.546844,대구광역시 달서구 월배로 330-1,536511101,연중무휴,"월,수~목~토 09:00~19:00, 화 09:00~20:00, 법정공휴일 09:00~18:00"
2층스타약국,동물약국,37.63528107,126.917656,서울특별시 은평구 통일로 1034,23578889,매주 일요일,"수 09:00~21:00, 목 09:00~19:00, 금 09:00~19:00, 토 09:00~15:00,, 월 09:00~19:00, 화 09:00~19:00,"
2층약국,동물약국,37.36226346,126.962527,경기도 안양시 동안구 경수대로 428,314271350,"매주 토, 일, 법정공휴일",월~금 09:00~18:00
2층엔약국,동물약국,37.62549445,127.152105,경기도 남양주시 다산중앙로123번길 22-30,315658875,"매주 일요일, 법정공휴일","월~금 09:00~18:00, 토 09:00~13:00"
2층은약국,동물약국,37.50975909,126.963859,서울특별시 동작구 현충로 75,264848248,"매주 일요일, 법정공휴일","월, 수 09:15~19:00, 화, 목 09:15~21:00, 금 09:15~20:30, 토 09:15~15:00"
2층종로약국,동물약국,37.61962267,126.921523,서울특별시 은평구 통일로 856,50714385603,"매주 일요일, 법정공휴일","월~금 09:00~20:00, 토 09:00~14:00"
2층푸른약국,동물약국,37.63626695,126.870344,경기도 고양시 덕양구 권율대로 512,319693545,"매주 토, 일",월~금 08:30~18:30
2층하늘약국,동물약국,37.57014164,126.903832,서울특별시 마포구 월드컵북로 230,23034290,"매주 일요일, 법정공휴일","월~금 09:30~18:30, 토 09:30~14:00"
2층하늘약국,동물약국,35.31722616,128.585285,경상남도 창원시 의창구 북면 동곡로 9,552947277,"매주 일요일, 법정공휴일","월~금 10:00~18:00, 토 10:00~15:00"
2Cats,카페,37.57182943,126.986787,서울특별시 종로구 인사동길 11,27227833,연중무휴,매일 11:00~21:00
306퍼피,반려동물용품,35.14484286,126.838331,광주광역시 서구 마륵로 59,50713351306,매주 일요일,월~토 10:00~20:00
315아트센터,문예회관,35.22581853,128.577106,경상남도 창원시 마산회원구 삼호로 135,557197800,전시공연에 따라 변동,전시공연에 따라 변동
331멍발소,미용,37.5850119,127.041494,서울특별시 동대문구 제기로20길 34-1,50713903310,연중무휴,매일 10:00~20:00
365 건강약국,동물약국,37.5447422,126.738065,인천광역시 계양구 장제로 867,325551801,연중무휴,"월~금, 일 09:00~13:00, 토 09:00~16:00, 법정공휴일 09:00~18:00"
365 녹십자약국,동물약국,36.99540937,127.083523,경기도 평택시 중앙로 2,316523307,연중무휴,"월~금 22:00~25:00, 토 22:00~25:00, 일 22:00~25:00, 법정공휴일 22:00~25:00"
365 마음동물병원,동물병원,37.49627786,126.829996,서울특별시 구로구 오리로 1286,226115223,연중무휴,매일 10:00~20:00
365 신원당 동물병원,동물병원,37.65444911,126.840398,경기도 고양시 덕양구 호국로790번길 88,319630075,연중무휴,매일 10:00~20:00
365 우리약국,동물약국,35.02157165,126.785385,전라남도 나주시 전력로 2,613338228,연중무휴,"월~토 08:00~22:30, 일 09:00~22:30"
365 종로약국,동물약국,37.57028867,127.057409,서울특별시 동대문구 전농로 60-1,50713538704,연중무휴,매일 08:00~23:00
365건강온누리약국,동물약국,33.50073528,126.528208,제주특별자치도 제주시 서광로 297,647553157,매주 일요일,"월~금 09:00~21:00, 토 09:00~21:00, 법정공휴일 09:00~21:00"
365구생약국,동물약국,37.6112522,126.928734,서울특별시 은평구 통일로 739,23531144,연중무휴,"월~금 09:00~22:00, 토 09:00~22:00, 일 10:00~22:00, 법정공휴일 10:00~22:00"
365굿모닝약국,동물약국,37.47404179,126.869691,경기도 광명시 디지털로 19,,연중무휴,"월~금 09:00~22:00, 일, 법정공휴일 10:00~21:30"
365그린약국,동물약국,37.53152152,126.846532,서울특별시 강서구 강서로 43,26538070,매주 일요일,"월~금 09:00~21:00, 토 09:00~17:00"
365그린약국,동물약국,37.35076234,127.108309,경기도 성남시 분당구 성남대로 165,317172267,연중무휴,"월~금 09:00~22:00, 토~일 09:00~22:00, 법정공휴일 09:00~22:00"
365동물병원,동물병원,37.66297575,127.046351,서울특별시 도봉구 방학로 54,264020365,연중무휴,"월~금 09:30~20:00, 토 09:30~19:00, 일, 법정공휴일 09:30~17:00"
365동물병원 분당점,동물병원,37.34894044,127.110467,경기도 성남시 분당구 미금일로90번길 32,317180365,매주 일요일,"월~화 10:00~18:00, 수 10:00~16:30, 목~금 10:00~18:00, 토 10:00~16:30"
365동물병원위례점,동물병원,37.47349797,127.150174,경기도 성남시 수정구 위례동로 153,50714490366,연중무휴,"월~토 10:00~19:00, 일 10:00~18:00"
365동판교동물병원,동물병원,37.38547568,127.111442,경기도 성남시 분당구 판교역로14번길 20,317817582,연중무휴,"월~금 10:00~19:00, 토~일 10:00~19:00, 법정공휴일 10:00~17:00"
365드림동물약국,동물약국,37.65407418,127.2429,경기도 남양주시 늘을1로16번길 25,315943652,매주 일요일,"월~금 09:00~21:00, 토 09:00~17:00"
365라피에스타약국,동물약국,37.39753735,126.72752,인천광역시 남동구 논고개로 61,322557000,연중무휴,"월~금 08:30~22:00, 토~일, 법정공휴일 09:00~22:00"
365마트약국,동물약국,37.52781676,126.904683,서울특별시 영등포구 영중로 125,226334865,연중무휴,매일 10:00~22:00
365매일약국,동물약국,35.31631644,129.003786,경상남도 양산시 물금읍 백호로 92,553835613,연중무휴,"월~금 09:00~21:00, 토 09:00~21:00, 일 09:00~21:00, 법정공휴일 09:00~21:00"
365문화전당약국,동물약국,35.14660282,126.918519,광주광역시 동구 서석로 46,50714828818,연중무휴,매일 11:00~22:00
365미소약국,동물약국,37.63946305,126.918268,서울특별시 은평구 진관3로 11,264718488,연중무휴,"매일 09:00~21:00,"
365박달온누리약국,동물약국,37.40276547,126.910619,경기도 안양시 만안구 양화로 112,314653512,연중무휴,"월~금 08:00~22:00, 토 08:00~22:00, 일 09:00~19:00, 법정공휴일 09:00~19:00"
365밝은약국,동물약국,37.48035771,126.855167,경기도 광명시 광명로 914-1,226124100,연중무휴,"월~토 09:00~20:00, 일, 법정공휴일 13:00~19:00"
365보배약국,동물약국,34.96170959,127.517842,전라남도 순천시 봉화2길 99,50713601172,연중무휴,"월~토 09:00~21:00, 일 13:00~21:00"
365부평프라자약국,동물약국,37.49416036,126.722543,인천광역시 부평구 부평문화로 57,325045767,법정공휴일,"월~금 08:30~20:00, 토 08:30~18:30, 일 09:30~18:30"
365상무중앙약국,동물약국,35.15210509,126.848919,광주광역시 서구 상무중앙로 58,627168575,연중무휴,매일 09:00~21:00
365새누리약국,동물약국,37.53288516,126.864166,서울특별시 양천구 등촌로 32,226481858,연중무휴,"월~금 08:00~21:00, 토 08:00~19:00, 일, 법정공휴일 12:00~21:00"
365세심당약국,동물약국,37.0052847,127.267452,경기도 안성시 인지2길 6,316720365,"매주 토, 일, 법정공휴일",월~금 10:00~18:00
365스마일약국,동물약국,36.6468459,126.676462,충청남도 홍성군 홍북읍 홍학로 95,50713473657,연중무휴,"월~토 08:20~22:00, 일 09:00~21:00"
365스마일약국,동물약국,36.29676441,127.326147,대전광역시 서구 관저로 27,423420045,연중무휴,"월~금 08:00~21:00, 토 08:00~17:00, 일 09:00~17:00, 법정공휴일 09:00~17:00"
365약국,동물약국,37.6086296,127.029459,서울특별시 성북구 동소문로 321,29851365,연중무휴,매일 09:00~20:30
365약국,동물약국,37.89269547,127.053239,경기도 동두천시 지행로 53,318584435,연중무휴,"월~금 09:00~20:00, 토 09:00~16:00, 일, 법정공휴일 09:00~15:00"
365약국,동물약국,37.56679537,127.189247,경기도 하남시 미사강변중앙로 226,317940367,연중무휴,"월~금 09:00~22:30, 토 09:00~23:00, 일 09:00~23:00, 법정공휴일 09:00~23:00"
365약국,동물약국,37.530938,126.737815,인천광역시 계양구 오조산로 1,325470365,연중무휴,"월~금 09:00~23:00, 토 09:00~23:00"
365약국,동물약국,36.56380959,128.701616,경상북도 안동시 경상북도대로 385,548588896,연중무휴,"월~금 08:00~22:00, 토 08:00~22:00, 일 11:00~22:00, 법정공휴일 08:00~22:00"
365에펠약국,동물약국,37.5637312,127.191742,경기도 하남시 미사강변동로 95,317913650,연중무휴,"월~금 10:00~22:00, 토 10:00~22:00, 일 10:00~22:00, 법정공휴일 10:00~22:00"
365열린동물약국,동물약국,36.05112542,129.362223,경상북도 포항시 북구 중앙로 438,542460369,"매주 일요일, 법정공휴일","월~금 09:00~19:00, 토 09:00~13:00"
365열린약국,동물약국,37.54350072,126.952887,서울특별시 마포구 백범로 199,260102720,연중무휴,"월~금 08:00~21:00, 토~일, 법정공휴일 08:00~17:00"
365열린약국,동물약국,37.5267661,126.905231,서울특별시 영등포구 영중로 119,25687807,연중무휴,매일 09:00~23:00
365열린약국,동물약국,37.49399577,126.858255,서울특별시 구로구 남부순환로97길 3,236660784,연중무휴,매일 08:30~22:30
365열린약국,동물약국,37.13674837,127.072748,경기도 오산시 경기도대로 133,313740360,연중무휴,"월~금 08:30~22:00, 토 08:30~22:00, 일 08:30~22:00, 법정공휴일 08:30~22:00"
365열린약국,동물약국,37.48899384,126.739736,인천광역시 부평구 부일로 87,325043650,"매주 토, 일",월~금 09:00~17:00
365열린약국,동물약국,36.82837272,127.138014,충청남도 천안시 서북구 쌍용대로 348,415552968,연중무휴,매일 11:00~21:00
365열린약국,동물약국,35.49995959,129.428845,울산광역시 동구 방어진순환도로 652,50714740334,연중무휴,"월~금 09:00~19:00, 토~일 09:00~14:00"
365열린온누리약국,동물약국,37.45674659,126.641302,인천광역시 미추홀구 낙섬중로 105,328910012,"매주 일요일, 법정공휴일","월~토 09:00~20:00, 토 09:00~20:00"
365열린큰약국,동물약국,37.31279759,127.081667,경기도 용인시 수지구 성복2로 38,,"매주 일요일, 법정공휴일","월~금 09:00~18:00, 토 09:00~13:00"
365올리브약국,동물약국,37.63058484,127.024886,서울특별시 강북구 도봉로 242,50714399992,연중무휴,"월~금 09:00~20:00, 토 09:00~18:00, 일 12:00~18:00"
365올바른약국,동물약국,37.39558003,126.9305,경기도 안양시 만안구 태평로52번길 21,314647511,연중무휴,"월~금 08:30~20:00, 토 08:00~18:00, 일 10:00~18:00, 법정공휴일 10:00~18:00"
365우리약국,동물약국,37.95747664,127.317846,경기도 포천시 일동면 화동로 1056,315336127,연중무휴,"월~금 08:30~20:00, 토 08:30~21:00, 일 09:00~21:00, 법정공휴일 09:00~21:00"
365웃장대형약국,동물약국,34.95778968,127.484419,전라남도 순천시 중앙로 136,617535522,연중무휴,"월~금 08:30~22:00, 토 08:30~22:00, 일 09:00~22:00, 법정공휴일 09:00~22:00"
365일박사약국,동물약국,35.83882525,127.059182,전라북도 전주시 덕진구 기지로 77,632263650,연중무휴,"월~금 09:00~22:00, 토 09:00~22:00, 일 09:00~22:00, 법정공휴일 09:00~22:00"
365정화약국,동물약국,37.65616028,127.061515,서울특별시 노원구 상계로 59,29354869,연중무휴,"월~토 09:00~23:00, 일, 법정공휴일 13:00~23:00"
365조은약국,동물약국,37.37353225,126.854765,경기도 시흥시 목감중앙로 47,314031178,"매주 토, 일","월~금 08:00~21:00, 법정공휴일 09:00~18:00"
365종로약국,동물약국,37.67750362,126.769088,경기도 고양시 일산서구 일산로 530,319215232,연중무휴,"월~일, 법정공휴일 11:00~21:00"
365종로약국,동물약국,35.04273831,126.717106,전라남도 나주시 대호길 85-1,610000000,연중무휴,"월~금 12:00~22:00, 토 12:00~22:00, 일, 법정공휴일 14:00~20:00"
365종로온누리약국,동물약국,37.72065011,127.202725,경기도 남양주시 진접읍 해밀예당1로 221,7042284523,연중무휴,"월~금 09:00~21:00, 토~일, 법정공휴일 09:00~17:00"
365청솔약국,동물약국,35.18079009,128.559752,경상남도 창원시 마산합포구 월남동5가 4-1,552429223,연중무휴,"월~금 09:00~21:00, 토 09:00~21:00, 일 09:00~21:00, 법정공휴일 09:00~21:00"
365큰사랑 약국,동물약국,36.31717516,127.391794,대전광역시 중구 계백로 1543,425273650,연중무휴,"월~토 09:00~22:00, 일 14:00~22:00, 법정공휴일 14:00~22:00"
365푸른약국,동물약국,37.60117414,127.174405,경기도 남양주시 다산지금로 131,315651283,연중무휴,"월~일, 법정공휴일 09:00~21:00"
365프라자약국,동물약국,37.6162737,127.079279,서울특별시 중랑구 공릉로 63,29784266,"매주 일요일, 법정공휴일","월~금 09:00~21:00, 토 09:00~15:00"
365플러스약국,동물약국,37.57454832,127.038768,서울특별시 동대문구 천호대로 133,29630110,연중무휴,매일 10:00~22:00
365행복약국,동물약국,37.63662358,127.068915,서울특별시 노원구 한글비석로 57,24692490,연중무휴,매일 10:00~21:00
365행복약국,동물약국,37.35119311,126.742914,경기도 시흥시 마유로418번길 18,314314691,연중무휴,"월~금 09:00~20:00, 토~일 09:00~18:00, 법정공휴일 09:00~18:00"
365행복약국,동물약국,37.40151653,126.722066,인천광역시 남동구 논고개로123번길 35,50713438184,연중무휴,"월~금 08:30~20:00, 토 08:30~16:00, 일 10:30~14:00"
365행운약국,동물약국,37.68360562,126.775361,경기도 고양시 일산서구 일중로 46,319752511,연중무휴,"월~금 09:00~19:00, 토 09:00~17:00, 일 09:00~13:00"
369펜션,펜션,33.47371025,126.645997,제주특별자치도 제주시 조천읍 와흘로 369,647268266,연중무휴,매일 16:00~11:00
38 COFFEE,카페,38.00149385,128.115654,강원도 인제군 남면 설악로 1129,334619966,연중무휴,매일 08:30~20:30
38 DEGREE,카페,38.19104367,128.58822,강원도 속초시 엑스포로 27,50713440380,매주 수요일,목~화 12:00~22:00
38도씨식당,식당,37.54942988,126.921615,서울특별시 마포구 와우산로17길 19-17,50713398387,연중무휴,매일 17:00~01:00
3층 온누리약국,동물약국,37.27484277,127.118779,경기도 용인시 기흥구 기흥역로 63,313072882,연중무휴,"월~금 09:00~21:00, 토 09:00~21:00, 일 09:00~21:00, 법정공휴일 09:00~21:00"
3층 조은약국,동물약국,37.53203561,126.63023,인천광역시 서구 청라한내로72번길 23,325675080,,
3층365약국,동물약국,37.65758391,126.770856,경기도 고양시 일산동구 중앙로1261번길 55,319263069,연중무휴,매일 09:50~20:10
3층약국,동물약국,37.57014164,126.903832,서울특별시 마포구 월드컵북로 230,23064743,"매주 일요일, 법정공휴일","월~금 09:00~18:30, 토 09:00~15:00"
3층엔 참약국,동물약국,37.65410546,127.244118,경기도 남양주시 늘을2로14번길 3,315933315,매주 일요일,"월~목 09:30~19:00, 금 09:30~20:00, 토 09:30~15:00"
3층엠코약국,동물약국,37.59833282,127.091624,서울특별시 중랑구 망우로 353,24347707,연중무휴,"월~금 09:00~21:00, 토 09:00~18:00, 일 09:00~12:00"
3층온누리약국,동물약국,37.48340505,126.776519,경기도 부천시 경인로 190,327216506,매주 일요일,"월~금 08:30~18:00, 토 08:30~16:00"
3층큰별약국,동물약국,37.32081608,126.844722,경기도 안산시 상록구 화랑로 513,314837180,"매주 일요일, 법정공휴일","월~금 09:00~19:00, 토 09:00~14:00"
3층파란문약국,동물약국,37.52704046,126.964892,서울특별시 용산구 한강대로 69,27969008,"매주 일요일, 법정공휴일","월~금 10:00~15:00, 토 10:00~15:30"
3층행복약국,동물약국,37.39114116,127.126207,경기도 성남시 분당구 양현로94번길 19,317011042,"매주 일요일, 법정공휴일","월~금 09:00~19:00, 토 09:00~14:00"
41번길약국,동물약국,35.1752187,129.106402,부산광역시 수영구 과정로41번길 20,517544997,"매주 일요일, 법정공휴일","월~금 09:00~19:00, 토 09:00~13:30"
41약국,동물약국,37.52817831,126.875772,서울특별시 양천구 목동동로 293,226547774,"매주 일요일, 법정공휴일",월~토 09:30~20:00
4층 다나약국,동물약국,37.48256382,126.953099,서울특별시 관악구 관악로 195,28789529,"매주 일요일, 법정공휴일","월~금 09:00~18:30, 토 09:00~13:00"
4u동물메디컬센타,동물병원,37.30902799,126.830635,경기도 안산시 단원구 광덕대로 142,313648220,연중무휴,매일 00:00~24:00
518기념공원,여행지,35.15574851,126.858584,광주광역시 서구 상무민주로 61,623765197,연중무휴,매일 00:00~24:00
518기념문화센터,문예회관,35.15830536,126.857556,광주광역시 서구 내방로 152,623765197,전시공연에 따라 변동,전시공연에 따라 변동
521펫살롱,미용,35.18396239,129.0734,부산광역시 연제구 거제대로178번길 55-1,50713479521,"매주 수, 금","일~화, 목 10:00~17:00, 토 10:00~19:00"
525그루밍,위탁관리,35.85950785,128.576593,대구광역시 중구 남산로17길 147,50714750526,매주 일요일,월~토 10:00~19:00
59캣독,반려동물용품,34.87918922,128.628108,경상남도 거제시 거제중앙로 1796,50714420260,연중무휴,매일 10:00~22:00
5층약국,동물약국,37.50513416,126.753732,경기도 부천시 상동로 90,323275525,"매주 일요일, 법정공휴일","월~금 09:00~18:00, 토 09:00~13:00"
5층우리약국,동물약국,37.32461943,127.097592,경기도 용인시 수지구 풍덕천로 149,318962393,"매주 일요일, 법정공휴일","월~금 09:00~18:30, 토 09:00~15:00"
625전쟁체험기념관,박물관,38.58407952,128.373679,강원도 고성군 현내면 통일전망대로 453,336820088,연중무휴,매일 09:00~16:50
63아트,미술관,37.51966416,126.939909,서울특별시 영등포구 63로 50,27895101,연중무휴,매일 10:00~22:00
7번약국,동물약국,37.6382539,127.025489,서울특별시 강북구 도봉로 339,29047773,연중무휴,"월~토 09:00~01:00, 일, 법정공휴일 13:00~01:00"
7번약국,동물약국,35.16703134,129.115848,부산광역시 수영구 수영로 690-5,517522525,"매주 일요일, 법정공휴일","월~금 09:00~19:00, 토 09:00~13:00"
8번가위드팜약국,동물약국,37.5630334,126.943333,서울특별시 서대문구 성산로 515,23134588,"매주 일요일, 법정공휴일","월~금 09:00~19:00, 토 09:00~14:00"
92버터샵,카페,36.13772258,128.423821,경상북도 구미시 산호대로33길 18,50713535615,"매주 일, 월",화~토 11:00~20:00
953공방,반려동물용품,35.1369211,129.101989,부산광역시 남구 용소로13번길 27,,,
9시약국,동물약국,37.51959711,126.805155,경기도 부천시 소사로 712,322270250,연중무휴,"월~일, 법정공휴일 09:00~21:00"
가가약국,동물약국,35.8182778,128.532552,대구광역시 달서구 월배로 183,536437691,홈플러스 휴무일,매일 10:00~24:00
가가호호오도독,반려동물용품,35.99052352,128.395617,경상북도 칠곡군 왜관읍 강변대로 1266,549770464,휴무일 변동,매일 11:00~22:00
가경 나음 동물병원,동물병원,36.61872947,127.432392,충청북도 청주시 흥덕구 서현로 90,432367975,매주 일요일,"월~금 10:00~19:00, 토 10:00~19:00"
가경공원,여행지,36.61266041,127.437237,충청북도 청주시 흥덕구 서부로 1241-31,432014435,연중무휴,매일 00:00~24:00
가고파 약국,동물약국,35.19985818,128.566038,경상남도 창원시 마산합포구 완월동15길 22,552439832,"매주 일요일, 법정공휴일","월~금 08:30~18:30, 토 08:30~13:30"
가곡우리약국,동물약국,34.98008132,127.484586,전라남도 순천시 가곡동 964-11,617540070,"매주 일요일, 법정공휴일","월~금 08:40~18:30, 토 08:40~13:00"
가까운 광명약국,동물약국,37.42421462,126.887063,경기도 광명시 덕안로104번길 17,226128150,"매주 일요일, 법정공휴일","월~금 08:30~18:00, 토 08:30~13:00"
가까운 대학약국,동물약국,37.28300695,127.435301,경기도 이천시 영창로 108,316341102,"매주 토, 일, 법정공휴일",월~금 08:30~18:00
가까운 새서울약국,동물약국,37.53082426,127.112289,서울특별시 송파구 토성로 18,24778205,"매주 토, 일",월~금 08:30~18:30
가까운 약국,동물약국,35.15795506,129.056806,부산광역시 부산진구 가야대로 779,518191421,연중무휴,"월~금 09:00~19:00, 토 09:00~17:00, 일 09:00~19:00, 법정공휴일 09:00~19:00"
가까운 온누리 약국,동물약국,36.0130488,129.340889,경상북도 포항시 남구 희망대로 614,542779695,법정공휴일,"월~금 09:00~20:00, 토 09:00~16:00"
가까운 정문약국,동물약국,37.01654735,127.261271,경기도 안성시 남파로 99,316747789,"매주 토, 일, 법정공휴일",월~금 08:30~18:30
가까운 태평양약국,동물약국,37.44372983,127.139111,경기도 성남시 수정구 수정로171번길 8,317528020,"매주 토, 일, 법정공휴일",월~금 10:00~18:00
가까운동물병원,동물병원,36.60660067,127.489953,충청북도 청주시 서원구 1순환로 1109,432887533,"매주 토, 일",월~금 09:00~18:00
가까운사랑약국,동물약국,37.54616183,127.143454,서울특별시 강동구 양재대로 1576,24284428,매주 일요일,"월~금 08:30~20:30, 토 08:30~18:00"
가까운약국,동물약국,37.51746312,126.896494,서울특별시 영등포구 당산로 34,50713078231,"매주 일요일, 법정공휴일","월~금 09:00~22:00, 토 09:00~17:00"
가까운약국,동물약국,37.45918029,126.904874,서울특별시 금천구 독산로 133,28093323,"매주 일요일, 법정공휴일","월~금 08:30~19:00, 토 08:30~16:00"
가까운약국,동물약국,37.48614225,126.947286,서울특별시 관악구 양녕로 46,7042227272,연중무휴,"월~금 08:30~21:00, 토 08:30~18:00, 일 08:30~13:30, 법정공휴일 08:40~14:00"
가까운약국,동물약국,37.64485074,126.792083,경기도 고양시 일산동구 강송로 49,319017939,매주 일요일,월~토 09:00~19:00
가까운약국,동물약국,37.11549809,127.611698,경기도 이천시 장호원읍 서동대로 8787,316418077,"매주 일요일, 법정공휴일","월~금 09:00~21:00, 토 09:00~18:00"
가까운약국,동물약국,37.87414443,127.744578,강원도 춘천시 서부대성로227번길 15-7,332449406,"매주 토, 일",월~금 08:30~18:00
가까운약국,동물약국,36.67184794,127.485387,충청북도 청주시 청원구 주성로 172,432138861,"매주 일요일, 법정공휴일","월~금 09:00~18:30, 토 09:00~13:00"
가까운약국,동물약국,35.12055294,129.016576,부산광역시 서구 대신공원로 29,512486111,"매주 토, 일, 법정공휴일",월~금 08:30~18:00
가까운약국,동물약국,35.68169417,127.898461,경상남도 거창군 거창읍 송정1길 24-20,559423690,"매주 일요일, 법정공휴일","월~금 09:00~18:30, 토 09:00~14:00"
가까운약국,동물약국,35.25636314,128.870219,경상남도 김해시 가락로 355,553329600,"매주 일요일, 법정공휴일","월~금 09:00~18:00, 토 09:00~13:00"
가까운약국,동물약국,34.97627897,128.32375,경상남도 고성군 고성읍 중앙로25번길 46,556742217,"매주 일요일, 법정공휴일","월~금 08:00~19:00, 토 08:00~15:00"
가까운약국,동물약국,34.86057814,128.428238,경상남도 통영시 무전대로 65,556432333,연중무휴,"월~금 10:00~22:00, 토 10:00~22:00, 일 10:00~22:00, 법정공휴일 10:00~22:00"
가까운약국,동물약국,33.48424751,126.481742,제주특별자치도 제주시 원노형남1길 11,647456188,연중무휴,"월~금 09:00~22:00, 토 10:00~22:00, 일 13:00~22:00, 법정공휴일 13:00~22:00"
가까운온누리약국,동물약국,37.51740654,126.865307,서울특별시 양천구 목동서로 349,226508828,연중무휴,"월~토 09:00~21:00, 일, 법정공휴일 13:00~21:00"
가까운온누리약국,동물약국,37.31280365,126.829294,경기도 안산시 단원구 광덕대로 181,314117823,"매주 일요일, 법정공휴일","월~금 09:00~19:00, 토 09:00~15:00"
가까운정문약국,동물약국,37.61417516,127.09718,서울특별시 중랑구 신내로16길 17,7044022579,"매주 토, 일, 법정공휴일",월~금 09:00~18:00
가까운정문약국,동물약국,37.75112784,127.049571,경기도 의정부시 동일로 725,318488119,"매주 토, 일, 법정공휴일",월~금 09:00~18:00
가까운정문약국,동물약국,37.40203628,126.714148,인천광역시 남동구 논현로 69,324298201,"매주 토, 일, 법정공휴일",월~금 09:30~18:00
가까운평화약국,동물약국,34.96353114,127.545302,전라남도 순천시 해룡면 순광로 234-9,617217500,연중무휴,"월~금 08:30~20:00, 토 09:00~17:00, 일 10:00~17:00, 법정공휴일 10:00~17:00"
가나다 동물병원,동물병원,35.15119671,129.008065,부산광역시 사상구 가야대로 325,517157979,연중무휴,"월~금 09:30~19:00, 토, 공 09:30~19:00"
가나다동물병원,동물병원,34.56593206,126.594521,전라남도 해남군 해남읍 중앙2로 155,615336111,,
가나동물병원(경기 부천),동물병원,37.48354558,126.76318,경기도 부천시 경인로 72,326650075,매주 일요일,"월~금 10:00~20:00, 토 10:00~18:30"
가나동물병원(경기 성남시),동물병원,37.44248387,127.137835,경기도 성남시 수정구 수정로 160,317217582,,
가나동물병원(경북 구미),동물병원,36.12609539,128.338991,경상북도 구미시 금오시장로1길 16,544564450,연중무휴,"월~금 09:30~19:00, 토 09:30~16:00, 법정공휴일 09:30~16:00"
가나동물병원(논산),동물병원,36.13160564,127.09854,충청남도 논산시 연무읍 안심로127번길 14-1,417424287,,
가나동물병원(대구 북구),동물병원,35.89948287,128.608094,대구광역시 북구 산격로 109,539543395,,
가나동물병원(서울 강동),동물병원,37.55494229,127.136729,서울특별시 강동구 고덕로 101,24418588,,
가나동물병원(서울 도봉구),동물병원,37.66270567,127.034101,서울특별시 도봉구 방학로 162,234914748,매주 일요일,"월~금 09:30~19:00, 토 09:30~15:00"
가나동물병원(충남 아산),동물병원,36.78094858,127.007337,충청남도 아산시 온천대로 1525,415347582,매주 일요일,"월~금 09:00~19:30, 토 09:00~18:00"
가나메디칼약국,동물약국,37.4935564,126.723308,인천광역시 부평구 부평대로 24,325049662,연중무휴,"월~금 09:00~22:00, 토~일 10:00~22:00"
가나안약국,동물약국,37.48681784,126.783557,경기도 부천시 부천로 30,326527582,"매주 일요일, 법정공휴일",월~토 09:00~22:00
가나약국,동물약국,37.67064192,126.759159,경기도 고양시 일산서구 중앙로 1449,318188332,"매주 일요일, 법정공휴일","월~금 09:00~18:30, 토 09:00~16:30"
가나약국,동물약국,37.5574071,127.187998,경기도 하남시 미사강변대로 84,317960095,매주 일요일,"월~금 10:00~21:00, 토 16:00~21:00, 법정공휴일 16:00~21:00"
가나약국,동물약국,37.29558802,127.15215,경기도 용인시 기흥구 구성3로28번길 24,316938543,"매주 일요일, 법정공휴일","월~금 09:00~20:00, 토 09:00~14:30"
가나약국,동물약국,35.817581,128.532745,대구광역시 달서구 월배로 175,536389404,"매주 일요일, 법정공휴일","월~금 09:00~19:00, 토 09:00~16:00"
가나종합동물병원,동물병원,37.5359632,126.877988,서울특별시 양천구 목동서로 77,226457588,매주 일요일,월~토 09:00~20:00
가나종합동물병원,동물병원,36.03511387,129.361919,경상북도 포항시 북구 죽도로 6-3,542463801,매주 일요일,"월~금 09:30~18:30, 토 09:30~13:30"
가나종합동물병원,동물병원,35.82466913,128.72774,경상북도 경산시 성암로21길 3-7,538137583,매주 일요일,"월~금 10:00~19:00, 토 변동"
가남프라자약국,동물약국,37.20405664,127.544575,경기도 여주시 가남읍 태평로 46,318813573,법정공휴일,"월~금 08:00~22:00, 토 08:00~22:00, 일 08:00~22:00"
가능동물병원,동물병원,37.74674875,127.03511,경기도 의정부시 가능로 37,318751476,"매주 토, 일",월~금 09:00~19:00
가능하주약국,동물약국,37.74285173,127.029018,경기도 의정부시 호국로 1127,318557775,"매주 일요일, 법정공휴일","월~금 09:00~19:30, 토 09:00~16:00"
가든블루,펜션,38.04364239,127.374561,경기도 포천시 이동면 화동로 2236-33,50713093493,연중무휴,매일 15:00~11:00
가든애견샵,반려동물용품,36.35276277,126.588249,충청남도 보령시 중앙로 143,,연중무휴,매일 06:00~21:00
가든파이브약국,동물약국,37.47761484,127.124962,서울특별시 송파구 충민로 66,221570600,연중무휴,"금~일 09:00~22:00, 월~목 09:00~21:00"
가든펫동물병원,동물병원,37.58699856,126.908535,서울특별시 은평구 증산로9길 26-23,23735555,"매주 토, 일",월~금 10:00~16:00
가디온누리약국,동물약국,37.4807624,126.880679,서울특별시 금천구 가산디지털1로 171,50714875544,"매주 토, 일",월~금 08:30~19:00
가또블랑코,반려동물용품,37.71490192,126.635597,경기도 김포시 하성면 하성로447번길 23,5053008576,"매주 토, 일",월~금 09:00~17:00
가락바위소류지,여행지,36.80759774,127.059415,,,연중무휴,매일 00:00~24:00
가락약국,동물약국,37.49490974,127.117168,서울특별시 송파구 송파대로 286,7088068421,매주 일요일,"월~금 09:00~21:00, 토, 법정공휴일 09:00~18:00"
가락종합동물병원,동물병원,37.50635671,127.120876,서울특별시 송파구 오금로 247,24130075,매주 일요일,"월~금 09:30~19:00, 토 09:30~17:00"
가람동물병원(경기 고양),동물병원,37.65472123,126.777733,경기도 고양시 일산동구 강석로 156,319060976,매주 일요일,"월~금 10:00~19:00, 토 10:00~17:00, 화 15:00~19:00"
가람동물병원(경기 구리),동물병원,37.60473866,127.139722,경기도 구리시 건원대로 41,315587582,매주 일요일,"월~금 10:00~19:30, 토 10:00~16:00"
가람동물병원(경기 김포),동물병원,37.66663738,126.637,경기도 김포시 양촌읍 양곡로390번길 97,319810123,"매주 토, 일",월~금 09:00~18:00
가람동물병원(경기 부천),동물병원,37.48345272,126.810382,경기도 부천시 경인로 494,323431397,매주 일요일,"월~금 09:30~19:30, 토 09:30~17:00"
가람동물병원(경남 진주),동물병원,35.18589601,128.087947,경상남도 진주시 진주대로 962,557583625,,
가람동물병원(경주),동물병원,35.71550352,129.323617,경상북도 경주시 외동읍 입실로3길 32,547431947,법정공휴일,"월~금 09:00~18:30, 토 10:00~15:00"
가람동물병원(나주),동물병원,35.01997388,126.791387,전라남도 나주시 배멧1길 40,613327975,"매주 일요일, 법정법정공휴일","월~금 09:00~19:00, 토 09:00~17:00"
가람동물병원(대구 달서구),동물병원,35.81673138,128.539267,대구광역시 달서구 월곡로 249,536396366,,
가람동물병원(상주),동물병원,36.41615289,128.168211,경상북도 상주시 중앙로 271,545354123,,
가람동물병원(서울 강동),동물병원,37.52902824,127.124221,서울특별시 강동구 성내로 36,24845502,매주 일요일,"월~금 09:30~20:00, 토 09:30~18:00"
가람동물병원(제주),동물병원,33.21931917,126.252759,제주특별자치도 서귀포시 대정읍 최남단해안로29번길 22,647947571,"매주 일요일, 법정공휴일","월~금 08:30~18:00, 토 08:30~18:00"
가람동물병원(창원),동물병원,35.24532554,128.589298,경상남도 창원시 마산회원구 3.15대로 846,552927375,,
가람약국,동물약국,37.57467165,126.96843,서울특별시 종로구 사직동 9,27339303,연중무휴,"월~금 10:00~20:00, 토 10:00~20:00, 일 10:00~20:00, 법정공휴일 10:00~20:00"
가람약국,동물약국,37.54909446,126.867872,서울특별시 양천구 공항대로 564,226583518,연중무휴,"월~금 09:00~20:30, 토 09:00~15:30, 일 10:30~20:00, 법정공휴일 10:00~16:00"
가람약국,동물약국,37.46674548,126.886719,서울특별시 금천구 가산디지털1로 5,222250048,"매주 토, 일, 법정공휴일",월~금 08:00~20:00
가람약국,동물약국,37.60004625,126.771102,경기도 김포시 고촌읍 김포대로 327,319862717,"매주 토, 일, 법정공휴일","월~화, 목~금 09:00~21:00, 수 09:00~19:00"
가람약국,동물약국,37.66914144,126.749558,경기도 고양시 일산서구 킨텍스로 255,319177720,"매주 토, 일, 법정공휴일",월~금 09:00~18:00
가람약국,동물약국,37.60610704,127.157231,경기도 남양주시 도농로 1,315575050,"매주 일요일, 법정공휴일","월~금 09:00~19:30, 토 09:00~17:00"
가람약국,동물약국,35.88990466,128.555962,대구광역시 서구 팔달로 54,533533772,이마트 휴무일,"매일 10:00~22:00, 법정공휴일 10:00~22:00"
가람약국,동물약국,35.53704698,129.324684,울산광역시 남구 삼산로 159-1,522577584,연중무휴,매일 09:00~02:00
가람약국,동물약국,35.68732843,127.916804,경상남도 거창군 거창읍 거창대로1길 7-2,559453651,"매주 토, 일, 법정공휴일",월~금 09:00~18:00
가람유통,반려동물용품,35.19856702,129.075163,부산광역시 동래구 여고로 111,519425456,연중무휴,매일 09:00~21:00
가람펫,미용,37.41631382,127.259596,경기도 광주시 광주대로 107,317630079,연중무휴,"월~금 10:00~21:00, 토~일 10:00~20:00"
가로수동물병원,동물병원,37.52435015,127.023513,서울특별시 강남구 압구정로 134,25497579,연중무휴,월~토 10:00~19:00(일 18:00)
가로수동물병원,동물병원,35.14462483,126.87377,광주광역시 서구 월드컵4강로 88,623727975,매주 일요일,"월~금 09:00~19:00, 토 09:00~19:00"
가림약국,동물약국,37.49977059,126.769407,경기도 부천시 조마루로 231,323228409,"매주 일요일, 법정공휴일","월~금 09:00~21:30, 토 09:00~20:00"
가마미해수욕장,여행지,35.39762675,126.408005,전라남도 영광군 홍농읍 가마미로 341-6,613561020,연중무휴,매일 00:00~24:00
가믄장 동물병원,동물병원,36.1026433,127.488673,충청남도 금산군 금산읍 금산로 1444,417518880,,
가산박물관,박물관,36.40466701,127.621897,충청북도 옥천군 안내면 안내회남로 310-5,437339129,연중무휴,매일 09:00~18:00
가산소중한약국,동물약국,37.48107584,126.886418,서울특별시 금천구 디지털로9길 68,232818005,매주 일요일,"월~금 08:00~18:30, 토 08:00~13:30"
가산약국,동물약국,37.47610711,126.893145,서울특별시 금천구 가산로 116,28381158,연중무휴,"월~토 08:30~22:00, 일, 법정공휴일 09:00~19:00"
가수원 프라자약국,동물약국,36.30481115,127.350054,대전광역시 서구 계백로 1141,425433132,"매주 일요일, 법정공휴일","월~금 09:00~21:00, 토 09:00~18:00"
가수원근린공원,여행지,36.29819101,127.352494,대전광역시 서구 가수원중로65번길 22,,연중무휴,매일 00:00~24:00
가야 애견용품할인마트,반려동물용품,37.26923345,127.009364,경기도 수원시 팔달구 효원로 49,312377366,,
가야농업협동조합동물병원,동물병원,35.76352951,128.135194,경상남도 합천군 가야면 황산1길 69-15,559327750,,
가야동물병원,동물병원,37.4905988,126.783894,경기도 부천시 부천로 69,326553500,매주 수요일,"월~금 10:00~19:00, 토 10:00~12:00"
가야동물병원,동물병원,37.26923345,127.009364,경기도 수원시 팔달구 효원로 49,312348318,연중무휴,매일 10:00~19:00
가야동물병원,동물병원,36.11939927,128.121005,경상북도 김천시 김천로 188,544308275,매주 일요일,"월~금 09:30~19:00, 토 09:30~17:00, 법정공휴일 09:30~13:00"
가야동물병원,동물병원,35.501595,128.745411,경상남도 밀양시 백민로 101-1,553526610,,
가야동물병원,동물병원,35.17473026,126.926225,광주광역시 북구 동문대로 131,50713248597,매주 일요일,"월~금 10:00~19:00, 토 10:00~17:00"
가야로약국,동물약국,35.15089599,129.024413,부산광역시 부산진구 냉정로 226,518985144,연중무휴,"월~금 09:00~21:30, 토 09:00~20:00, 일 10:00~19:00, 법정공휴일 10:00~19:00"
가야온누리약국,동물약국,37.65195346,127.045751,서울특별시 도봉구 노해로65길 17-9,29974540,매주 일요일,"월~금 08:00~18:00, 토 08:00~13:00"
가야종합동물병원,동물병원,35.15351625,129.025824,부산광역시 부산진구 가야대로 491,518947559,연중무휴,"월~금 9:30~18:30, 토, 법정공휴일 9:30~16:00"
가양누리약국,동물약국,37.56129159,126.860254,서울특별시 강서구 허준로 198,236638013,"매주 일요일, 법정공휴일","월~수, 금 09:00~19:30, 목 09:00~20:00, 토 09:00~16:00"
가양동물병원,동물병원,36.34724397,127.445156,대전광역시 동구 흥룡로 4,426368855,,
가양종로약국,동물약국,37.56258508,126.8517,서울특별시 강서구 양천로 460,226592356,매주 일요일,"월~금 09:00~20:30, 토 09:00~17:30"
가양쿨펫동물병원,동물병원,37.56426405,126.84996,서울특별시 강서구 양천로 431,236651838,매주 목요일,"월~수, 금~일 10:00~21:00"
가양하늘약국,동물약국,37.55958367,126.854738,서울특별시 강서구 화곡로68길 3,236624290,연중무휴,"월~금 08:00~20:30, 토~일, 법정공휴일 09:00~20:00"
가오온누리약국,동물약국,36.3061909,127.456127,대전광역시 동구 은어송로 60,422861023,매주 일요일,"월~금 09:00~20:00, 토 09:00~17:00"
가온동물병원,동물병원,37.56066757,127.170463,서울특별시 강동구 상일로 153,269537512,매주 수요일,"월~화, 목~일 10:00~21:00"
가온동물병원,동물병원,37.54014367,126.864055,서울특별시 양천구 등촌로 114,226432777,연중무휴,매일 10:00~22:00
가온동물병원,동물병원,36.78118647,127.15472,충청남도 천안시 동남구 남부대로 344,415535534,"1째주, 3째주 일요일","월~금 10:00~20:00, 토~일 10:00~18:00"
가온동물병원,동물병원,35.92164808,128.596416,대구광역시 북구 서변로 65-1,539580075,"매주 일요일, 법정공휴일","월~금 09:30~19:00, 토 09:30~17:00"
가온동물병원,동물병원,35.10916082,129.015286,부산광역시 서구 대영로 36,512413131,매주 일요일,"월~금 09:00~19:00, 토 09:00~17:00"
가온동물병원,동물병원,35.3160864,129.00379,경상남도 양산시 물금읍 백호로 96,553878256,매주 일요일,"월~금 09:30~19:00, 토 09:30~13:00"
가온동물병원,동물병원,35.79393225,126.901492,전라북도 김제시 중앙로 281,,,
가온동물의료센터,동물병원,37.52638238,126.671103,인천광역시 서구 염곡로464번길 15,325667589,연중무휴,"월~금 10:00~20:00, 토~일 10:00~18:00"
가온동물의료센터,동물병원,35.2054143,128.703039,경상남도 창원시 성산구 가음로 88,552747575,매주 일요일,"월~금 09:30~21:00, 토 09:30~18:00"
가온샘약국,동물약국,35.22782635,129.087626,부산광역시 금정구 장전로 10,519127790,법정공휴일,"월~금 09:00~19:00, 토 09:00~14:00, 일 09:00~19:00"
가온약국,동물약국,37.56112553,126.836985,서울특별시 강서구 마곡중앙8로 85,7047949611,"매주 일요일, 법정공휴일","월~금 09:00~20:30, 토 09:00~17:00"
가온약국,동물약국,37.61822061,126.846093,경기도 고양시 덕양구 중앙로 442,7041870607,"매주 토, 일",월~금 09:00~19:00
가온약국,동물약국,37.52720617,126.669749,인천광역시 서구 봉오재3로 90,325670879,"매주 토, 일, 법정공휴일","월, 목~금 09:00~19:30, 화 09:00~20:30, 수 09:00~21:00"
가온약국,동물약국,36.6074295,127.508397,충청북도 청주시 상당구 월평로 228,432881233,매주 일요일,"월~금 09:00~20:00, 토 09:00~13:00"
가온약국,동물약국,35.87270889,128.749583,대구광역시 동구 메디밸리로 1,539611548,매주 일요일,"월~금 09:00~18:20, 토 09:00~13:20"
가온약국,동물약국,35.08594485,128.877766,부산광역시 강서구 신호산단2로 33,519738275,연중무휴,"월~금 09:00~21:00, 토 09:00~20:00, 일 09:00~19:00, 법정공휴일 10:00~15:00"
가온약국,동물약국,35.17091187,128.061074,경상남도 진주시 새평거로 129,557416215,연중무휴,"월,수, 금 08:30~19:00, 화, 목 08:30~21:00, 토 08:30~14:00, 일 11:00~17:00"
가온온누리약국,동물약국,37.52817831,126.875772,서울특별시 양천구 목동동로 293,220611119,"매주 일요일, 법정공휴일","월~금 09:30~20:30, 토 09:30~18:30"
가온온누리약국,동물약국,37.72367086,126.753212,경기도 파주시 와석순환로 431,319471577,"매주 일요일, 법정공휴일","월~금 09:00~20:00, 토 09:00~14:00"
가우도,여행지,34.52719533,126.764915,,614322254,연중무휴,매일 00:00~24:00
가운이층약국,동물약국,37.60460873,127.15564,경기도 남양주시 경춘로 368,315640818,매주 일요일,"월~금 08:30~19:00, 토 09:00~15:00, 일 09:00~13:00"
가원별장 펜션,펜션,37.62218608,127.631772,경기도 양평군 단월면 명성길 176-1,50713172027,연중무휴,매일 15:00~11:00
가원펫 부천점,반려동물용품,37.48415713,126.773728,경기도 부천시 경인로 163,326655656,연중무휴,매일 09:30~21:30
가원펫애견샵,반려동물용품,37.52135003,126.846604,서울특별시 양천구 신월로 220,50714681701,연중무휴,매일 10:00~22:00
가은약국,동물약국,37.48162306,126.953739,서울특별시 관악구 봉천로 486,28789669,연중무휴,"월~토, 법정공휴일 09:00~21:00, 일 08:30~20:30"
가을애견미용실,미용,36.80012192,127.131101,충청남도 천안시 서북구 쌍용대로 43-20,,"매주 수,토,일","월~화, 목~금 10:00~18:00"
가음정약국,동물약국,35.209418,128.688789,경상남도 창원시 성산구 가음정로43번길 1,7077551380,매주 일요일,월~토 10:00~21:00
가이아펫,미용,37.32260554,127.078584,경기도 용인시 수지구 신봉1로 62,312636332,연중무휴,매일 10:00~20:00
가인동물병원,동물병원,36.98253927,127.931861,충청북도 충주시 계명대로 155,438442223,연중무휴,매일 10:00~19:00
가일미술관,미술관,37.66041649,127.379434,경기도 가평군 청평면 북한강로 1549,315844700,"설, 추석 연휴, 매주 월요일",화~일 10:00~17:00
가자펜션,펜션,34.71600425,128.626327,경상남도 거제시 남부면 거제남서로 324-4,,연중무휴,매일 15:00~11:00
가장빠른천사약국,동물약국,37.52644023,127.114932,서울특별시 송파구 강동대로 74,24838875,"매주 일요일, 법정공휴일","월~금 08:30~21:00, 토 08:30~19:00"
가장아름답개,미용,38.20012916,128.580744,강원도 속초시 교동로1길 8,50713788981,연중무휴,매일 11:00~22:00
가장큰동물약국,동물약국,36.77894859,127.02076,충청남도 아산시 모종남로12번길 9,414248953,"매주 일요일, 법정공휴일","월~금 08:30~18:30, 토 08:30~13:00"
가장큰이대약국,동물약국,37.55840386,126.834894,서울특별시 강서구 공항대로 248,226628279,연중무휴,"월~금 08:30~20:00, 토 09:00~19:30, 일 12:00~18:00"
가장큰태평양약국,동물약국,37.53331694,127.003891,서울특별시 용산구 대사관로 52,27903376,"매주 일요일, 법정공휴일","월~금 09:00~18:30, 토 09:00~13:30"
가장행복한대광약국,동물약국,36.51812896,127.256631,세종특별자치시 다솜1로 220,448682266,"매주 토, 일",월~금 08:30~18:00
가재울봉쥬르동물병원,동물병원,37.57717168,126.910871,서울특별시 서대문구 거북골로 178,23058275,"매주 목,일","월~수, 금 09:30~19:00, 토 09:30~18:00"
가정동물병원,동물병원,37.51566555,126.673022,인천광역시 서구 가정로 346,325750833,연중무휴,매일 10:00~20:00
가정미소약국,동물약국,37.52946814,126.665688,인천광역시 서구 봉오재3로 42,50714953013,매주 일요일,"월, 목 09:00~19:30, 화~수, 금 09:00~19:00, 토 09:00~15:00"
가정온누리약국,동물약국,37.52971145,126.66532,인천광역시 서구 청중로 486,325667809,"매주 일요일, 법정공휴일","월~금 09:00~21:00, 토 09:00~15:30"
가정온누리약국,동물약국,33.48769916,126.431113,제주특별자치도 제주시 우정로 57,647115275,매주 일요일,"월~금 08:30~20:00, 토 08:30~17:00"
가족동물병원,동물병원,35.96291769,126.715217,전라북도 군산시 월명로 211,634466688,매주 일요일,"월~화, 목 10:00~18:00, 수 10:00~13:00, 금 14:30~18:00, 토 10:00~13:00"
가족사랑약국,동물약국,37.62469669,127.032071,서울특별시 강북구 오패산로52길 39,29453720,"매주 일요일, 법정공휴일","월~금 09:00~17:00, 토 09:00~12:30"
가족사랑종로약국,동물약국,36.78295511,127.580257,충청북도 증평군 증평읍 중앙로 190,438381985,매주 일요일,"월~금 09:00~21:00, 토 09:00~19:30, 법정공휴일 09:00~18:00"
가족약국,동물약국,36.2067115,127.085648,충청남도 논산시 중앙로480번길 19,417350715,"매주 일요일, 법정공휴일","월~금 08:30~19:00, 토 08:30~13:00"
가좌동물병원,동물병원,37.58002921,126.911146,서울특별시 서대문구 응암로 77,23074633,연중무휴,"월~토 09:30~21:30, 일 10:00~18:00"
가좌동물병원,동물병원,37.68542381,126.720188,경기도 고양시 일산서구 가좌동 308-1,319225777,연중무휴,"월~금 09:30~21:30, 토 09:30~21:30, 일 10:00~18:00"
가좌마트약국,동물약국,37.49764729,126.670737,인천광역시 서구 가정로151번길 11,50713486555,"매주 일요일, 법정공휴일","월~금 10:00~17:00, 토 09:00~19:30"
가좌진약국,동물약국,37.56882737,126.916382,서울특별시 서대문구 수색로 20,23727749,"매주 일요일, 법정공휴일","월, 금 09:00~19:30, 화~목 09:00~19:00, 토 09:00~14:30"
가천박물관,박물관,37.41847997,126.657603,인천광역시 연수구 청량로102번길 40-9,328334747,"1월1일, 설, 추석 연휴, 매주 월요일",화~일 09:00~17:00
가톨릭관동대학교박물관,박물관,37.73732878,128.873705,강원도 강릉시 범일로579번길 24,336497851,"매주 토, 일, 법정공휴일",월~금 09:00~17:00
가평 퓨어향기 독채펜션,펜션,37.97137565,127.454239,경기도 가평군 북면 가화로 2670-23,,연중무휴,매일 15:00~11:00
가평가축병원,동물병원,37.82502832,127.514102,경기도 가평군 가평읍 오리나무길 27,315822412,,
가평문화예술회관,문예회관,37.82543108,127.506125,경기도 가평군 가평읍 문화로 131,3180788077,연중무휴,매일 08:00~22:00
가평온누리약국,동물약국,37.82973599,127.513369,경기도 가평군 가평읍 가화로 113,315818777,"매주 토, 일, 법정공휴일",월~금 09:00~20:00
가평중앙약국,동물약국,37.82936179,127.513687,경기도 가평군 가평읍 연인1길 1,315817522,연중무휴,"월~금 09:00~20:30, 토~일, 법정공휴일 09:00~19:00"
가평축산농협 동물병원,동물병원,37.82492834,127.515476,경기도 가평군 가평읍 가화로 55,315824111,"매주 토, 일",월~금 09:00~18:00
가평휴게소 반려견놀이터,여행지,37.70194035,127.546805,경기도 가평군 설악면 미사리로540번길 51,315841426,연중무휴,매일 08:00~18:00
가평힐링타임펜션,펜션,37.76246255,127.364275,경기도 가평군 상면 수목원로 181-26,,연중무휴,매일 15:00~11:00
가학산근린공원,여행지,37.42592096,126.865928,경기도 광명시 가학로85번길 134-23,226806952,연중무휴,매일 00:00~24:00
가화쌈지숲공원,여행지,36.30557822,127.560966,,437303484,연중무휴,매일 00:00~24:00
가회민화박물관,박물관,37.58150935,126.985229,서울특별시 종로구 북촌로 52,27410466,매주 월요일,화~일 10:00~18:000
각리근린공원,여행지,36.70914239,127.432127,,432014414,연중무휴,매일 00:00~24:00
각화제,여행지,35.18452351,126.939782,,,연중무휴,매일 00:00~24:00
간석약국,동물약국,37.46550679,126.693226,인천광역시 남동구 석정로 518,324394578,"매주 일요일, 법정공휴일","월~금 09:00~20:00, 토 09:00~19:00"
간석열린약국,동물약국,37.46190056,126.708008,인천광역시 남동구 남동대로 889-1,328514012,연중무휴,"월~금 09:00~19:00, 토~일 09:00~14:00"
간성종로약국,동물약국,38.37915065,128.472474,강원도 고성군 간성읍 간성로 24,336811122,"매주 일요일, 법정공휴일","월~금 08:30~18:00, 토 08:00~13:00"
간송박물관,박물관,37.59446244,126.996239,서울특별시 성북구 성북로 102-11,27620442,"매주 토, 일",월~금 10:00~18:00
간식곳간,반려동물용품,37.65490653,126.77154,경기도 고양시 일산동구 백마로 195,50714544042,매주 월요일,화~일 11:00~20:00
간식나무,반려동물용품,37.52209338,126.884455,서울특별시 영등포구 선유서로 67,226327111,매주 월요일,"화~금 11:00~20:00, 토~일 12:00~20:00"
간식멍냥,반려동물용품,35.85255898,128.595006,대구광역시 남구 이천로25길 60-4,50714580933,연중무휴,매일 00:00~24:00
간식멍냥,반려동물용품,35.22807921,128.504301,경상남도 창원시 마산회원구 내서읍 삼계1길 32,,,
간식멍는날,반려동물용품,37.31630762,126.922423,경기도 군포시 송부로74번길 3-6,50714739588,연중무휴,매일 11:00~21:00
간식뭐멍냥,반려동물용품,37.44583575,126.802044,경기도 시흥시 은계호수로 49,7043334774,연중무휴,매일 10:00~20:00
간식세끼,반려동물용품,37.27537239,127.446625,경기도 이천시 이섭대천로1177번길 7,7080648964,매주 토요일,"월~금 11:00~20:00, 일 15:00~20:00"
간식을부탁해 본점,반려동물용품,35.8189437,127.11914,전라북도 전주시 완산구 효자로 308,16885930,연중무휴,매일 10:00~21:00
간식이모,반려동물용품,35.57933604,129.338373,울산광역시 중구 달빛로 29,,매주 월요일,화~일 12:00~19:00
간식주까,반려동물용품,37.49004877,126.787739,경기도 부천시 원미로65번길 51,50714302439,매주 월요일,화~일 12:00~20:00
간식콩방,반려동물용품,35.53736448,129.349982,울산광역시 남구 산업로625번길 16,50714861054,매주 월요일,화~일 12:00~19:00
간절곶,여행지,35.35897306,129.360296,울산광역시 울주군 서생면 간절곶1길 39-2,522396313,매주 월요일,"화~일 하절기 09:00~18:00, 동절기 09:00~17:00"
갈마봉근린공원,여행지,36.38402393,127.317422,대전광역시 유성구 지족로328번길 123,426112344,연중무휴,매일 00:00~24:00
갈마약국,동물약국,36.35376046,127.368321,대전광역시 서구 계룡로 353,424869204,"매주 일요일, 법정공휴일","월~금 08:30~20:00, 토 08:30~18:00"
갈매365약국,동물약국,37.6320617,127.11725,경기도 구리시 갈매중앙로 83,315273691,연중무휴,"월~금 09:00~20:30, 토 09:00~16:00, 일, 법정공휴일 09:00~13:00"
갈매구릉산자락길,여행지,37.62707172,127.121305,,315502047,연중무휴,매일 00:00~24:00
갈매동물병원,동물병원,37.63053607,127.117141,경기도 구리시 갈매중앙로 70,315295088,매주 일요일,"월~금 13:00~19:00, 토 변동"
갈매메디칼센터약국,동물약국,37.63274415,127.117651,경기도 구리시 갈매중앙로 91,315293828,법정공휴일,"월~금 08:30~20:00, 토 08:30~14:00, 일 09:00~11:00"
감계동물병원,동물병원,35.30157825,128.595131,경상남도 창원시 의창구 북면 감계로110번길 54-31,552918275,매주 일요일,"월~금 09:30~19:00, 토 09:30~17:00"
감계미소약국,동물약국,35.30155638,128.595559,경상남도 창원시 의창구 북면 감계로110번길 54-39,552964788,"매주 일요일, 법정공휴일","월~금 09:00~20:00, 토 09:00~17:00"
감귤박물관,박물관,33.27159304,126.607428,제주특별자치도 서귀포시 효돈순환로 441,647606400,"1월1일, 설, 추석 당일","매일 09:00~18:00, 7~9월 09:00~19:00"
감나무실공원,여행지,36.61860037,127.436758,충청북도 청주시 흥덕구 2순환로1329번길 10,432002815,연중무휴,매일 00:00~24:00
감사약국,동물약국,37.85808369,126.785772,경기도 파주시 문산읍 문향로 72-1,319531153,연중무휴,"월~금 08:30~20:30, 토 08:30~20:30, 일 08:30~13:00, 법정공휴일 08:30~13:00"
감삼시티약국,동물약국,35.85404098,128.548519,대구광역시 달서구 달구벌대로 1666,536275959,"매주 일요일, 법정공휴일","월, 수, 목, 금 09:00~19:00, 화 09:00~21:00, 토 09:00~13:00"
감성공판장,카페,35.33528423,126.962041,전라남도 담양군 월산면 담장로 143,613830084,매주 화요일,수~월 11:00~20:30
감성독,반려동물용품,37.58089881,127.092994,서울특별시 중랑구 면목로44길 79,50713656988,매주 일요일,"월~금 11:00~20:00, 토 11:00~15:00"
감성약국,동물약국,37.41511724,126.618222,인천광역시 연수구 랜드마크로 68,328317579,매주 일요일,"월~금 09:00~20:00, 토 09:00~17:00, 법정공휴일 09:00~14:00"
감성있개,미용,37.60786117,127.09853,서울특별시 중랑구 봉화산로 232,,매주 일요일,월~토 09:30~17:30
감악산 출렁다리,여행지,37.93841476,126.947316,경기도 파주시 적성면 설마천로 238,319501938,연중무휴,매일 09:00~18:00
감우재전승기념관,박물관,36.95068328,127.647013,충청북도 음성군 음성읍 생음대로 594,438715930,"1월1일, 설, 추석 연휴, 매주 월요일",화~일 09:00~18:00
감일튼튼약국,동물약국,37.5093564,127.162964,경기도 하남시 신우실로 73,24893390,연중무휴,"월~금 09:00~21:00, 토 09:00~18:00, 일 09:00~18:00, 법정공휴일 09:00~18:00"
감자동물병원,동물병원,35.84127758,128.704727,대구광역시 수성구 달구벌대로 3179,537955589,매주 일요일,"월~금 10:00~20:00, 토 10:00~18:00"
감자밭,카페,37.92958863,127.784517,강원도 춘천시 신북읍 신샘밭로 674,15663756,연중무휴,매일 10:00~21:00
감천무지개약국,동물약국,35.08868291,129.005249,부산광역시 사하구 옥천로 11,512031032,"매주 토, 일, 법정공휴일",월~금 09:00~18:00
감천문화마을,여행지,35.09686103,129.01109,부산광역시 사하구 옥천로 130,512041444,연중무휴,매일 00:00~24:00
감초당약국,동물약국,37.54011919,127.218868,경기도 하남시 대청로 62,317951366,"매주 일요일, 법정공휴일","월~금 09:00~20:30, 토 09:00~18:00"
감초당약국,동물약국,36.28146326,126.91031,충청남도 부여군 부여읍 사비로99번길 1,418352726,연중무휴,"월~금 08:30~19:30, 토 08:30~19:00, 일 08:30~19:00, 법정공휴일 08:30~19:00"
감초당약국,동물약국,35.81765282,128.752737,경상북도 경산시 장산로 257,538016688,연중무휴,매일 08:30~20:30
감초당약국,동물약국,35.9821012,128.553702,경상북도 칠곡군 동명면 금암중앙길 34-1,549778838,"매주 일요일, 법정공휴일","월~금 09:00~18:00, 토 09:00~15:00"
감초당약국,동물약국,35.23010411,128.88239,경상남도 김해시 가락로 40,553362887,4째주 일요일,"월~금 09:00~19:00, 토 09:00~16:00, 일 09:00~12:30,법정공휴일 09:00~12:30"
감초당약국,동물약국,35.06128839,128.070221,경상남도 사천시 사남면 사천대로 1589-39,558556680,연중무휴,"월~금 08:00~21:00, 토 08:00~21:00, 일 08:00~21:00, 법정공휴일 08:00~21:00"
감초당약국,동물약국,35.13205295,126.907844,광주광역시 남구 대남대로159번길 17,626513821,"매주 일요일, 법정공휴일","월~금 09:00~19:30, 토 09:00~18:00"
감초약국,동물약국,37.53124981,126.84732,서울특별시 강서구 강서로 38,226025884,"매주 일요일, 법정공휴일",월~토 09:00~21:00
감초온누리약국,동물약국,37.67689998,127.493761,경기도 가평군 설악면 신천중앙로88번길 1,315851008,"매주 토, 일","월~금 08:30~18:30, 법정공휴일 08:30~15:00"
감춘영가축병원,동물병원,34.83502394,127.894505,경상남도 남해군 남해읍 화전로43번길 4,558633648,,
갑을동물병원,동물병원,35.1909585,129.127957,부산광역시 해운대구 재반로 148,517847844,매주 일요일,"월~금 09:30~19:00, 토 09:30~17:00"
갑천근린공원,여행지,36.35459963,127.350864,,,연중무휴,매일 00:00~24:00
갓바위미술관,미술관,34.79022712,126.385005,전라남도 목포시 노적봉길 4-1,612795763,매주 월요일,화~일 10:00~18:00
강경젓갈전시관,여행지,36.15755625,127.009806,충청남도 논산시 강경읍 금백로 45,417304648,매주 일요일,월~토 10:00~17:00
강남25동물병원,동물병원,37.51558036,127.035012,서울특별시 강남구 학동로 235,25458575,매주 토요일,"월~금 09:00~21:30, 일 12:30~21:00"
강남2층약국,동물약국,37.27123063,127.128157,경기도 용인시 기흥구 강남동로 10,312757585,"매주 일요일, 법정공휴일","월~금 09:00~19:00, 토 09:00~13:00"
강남가축동물병원,동물병원,36.08122182,126.957014,전라북도 익산시 함열읍 함열로 83,,,
강남강아지,위탁관리,37.49933085,127.042877,서울특별시 강남구 언주로79길 14,25562212,연중무휴,"월~금 08:00~20:00, 토~일 09:00~19:00"
강남구민회관,문예회관,37.49388799,127.064272,서울특별시 강남구 삼성로 154,221760891,"일요일, 법정공휴일 휴관","월~금 08:00~21:30, 토 09:00~19:30"
강남대약국,동물약국,37.27105025,127.126133,경기도 용인시 기흥구 강남로 3,50714887710,"매주 일요일, 법정공휴일","월~금 09:00~21:00, 토 09:00~15:00"
강남동물메디컬센터,동물병원,37.46176824,127.328233,경기도 광주시 퇴촌면 천진암로 553,317647555,연중무휴,매일 10:00~22:00
강남동물병원,동물병원,37.50776593,127.034472,서울특별시 강남구 봉은사로 205,25147582,,
강남동물병원,동물병원,37.67877367,126.811183,경기도 고양시 일산동구 위시티로 75,319067575,매주 일요일,월~토 10:00~20:00
강남동물병원,동물병원,37.44605036,127.163685,경기도 성남시 중원구 광명로 341,317413012,매주 일요일,"월~금 10:00~18:00, 토 변동"
강남동물병원,동물병원,37.35987307,126.930365,경기도 군포시 산본로343번길 23,313997599,매주 일요일,"월~금 09:30~19:00, 토 09:30~18:00"
강남동물병원,동물병원,37.33794222,127.092838,경기도 용인시 수지구 동천로99번길 3,318977582,매주 일요일,"월~금 10:00~19:00, 토 변동"
강남동물병원,동물병원,36.95915377,127.043335,경기도 평택시 팽성읍 안정쇼핑로 3,316927114,매주 일요일,"월~금 10:00~18:00, 토 10:00~15:00"
강남동물병원,동물병원,37.12571767,126.920807,경기도 화성시 향남읍 행정죽전로1길 25,313547844,"매주 일요일, 설, 추석 연휴",월~토 10:30~18:30
강남동물병원,동물병원,35.54269042,129.330664,울산광역시 남구 돋질로 234,522670025,연중무휴,"월~금 09:30~21:00, 토 09:30~21:00, 일 10:00~21:00"
강남동물병원,동물병원,33.5088724,126.523493,제주특별자치도 제주시 중앙로 106,647232005,,
강남동물약국,동물약국,37.4935558,127.042256,서울특별시 강남구 논현로64길 22,25014397,매주 일요일,"월~금 09:00~19:00, 토 09:00~15:00"
강남똥개,반려동물용품,37.50212842,127.053605,서울특별시 강남구 선릉로76길 38,,,
강남리더스약국,동물약국,37.46575802,127.101226,서울특별시 강남구 헌릉로 569,234148001,"매주 일요일, 법정공휴일","월~목 09:00~19:00, 금 09:00~20:00, 토 09:00~14:30"
강남메디칼약국,동물약국,37.48918282,126.993061,서울특별시 서초구 방배로 174,25940801,"매주 일요일, 법정공휴일","월~금 08:30~20:00, 토 08:30~16:00"
강남메디컬동물병원,동물병원,36.55175577,128.735886,경상북도 안동시 충효로 4465,549011100,매주 일요일,"월~금 09:30~19:30, 토 변동"
강남미약국,동물약국,37.49656606,127.028772,서울특별시 강남구 강남대로 376,25012105,연중무휴,"월~금 08:30~21:00, 토 08:00~20:00, 일, 법정공휴일 09:00~18:00"
강남백세약국,동물약국,37.49810979,127.059548,서울특별시 강남구 도곡로 448,25663138,연중무휴,"월~토 08:00~19:30, 일, 법정공휴일 11:00~19:00"
강남보선약국,동물약국,37.49918128,127.062988,서울특별시 강남구 도곡로 516,25682310,매주 일요일,"월~금 10:00~22:00, 토 10:00~22:00"
강남봄약국,동물약국,37.49343157,127.03218,서울특별시 강남구 역삼로 118,25579480,"매주 토, 일, 법정공휴일",월~금 09:00~19:00
강남새천년온누리약국,동물약국,37.50005633,127.063672,서울특별시 강남구 도곡로 523,25523524,연중무휴,매일 13:00~22:30
강남샘약국,동물약국,37.49509388,127.045735,서울특별시 강남구 언주로 309,25082333,"매주 일요일, 법정공휴일","월~금 09:30~18:30, 토 09:30~14:00"
강남서초 동물병원,동물병원,37.4902622,127.020363,서울특별시 서초구 사임당로 97,25989875,매주 일요일,"화~금 10:00~18:00, 월, 토 10:00~16:00"
강남씨티약국,동물약국,37.49979881,127.027158,서울특별시 강남구 강남대로 416,25531608,연중무휴,"월~토 08:30~21:30, 일, 법정공휴일 10:00~20:30"
강남애니동물메디컬센터,동물병원,37.54714391,127.211452,경기도 하남시 신평로 168,317950903,매주 일요일,"월~금 10:00~19:00, 토 변동"
강남애니펫샵,미용,37.54714391,127.211452,경기도 하남시 신평로 168,7077958875,연중무휴,매일 10:00~19:00
강남약국,동물약국,35.53879061,129.336284,울산광역시 남구 삼산로 266,522713101,매주 일요일,"월~금 09:00~19:00, 토 09:00~17:00, 법정공휴일 09:00~12:00"
강남약국,동물약국,35.55962376,129.12169,울산광역시 울주군 삼남읍 중평로 54,522640222,매주 일요일,"월~금 09:00~19:00, 토 09:00~13:00"
강남약국,동물약국,35.17985833,128.090277,경상남도 진주시 진주대로 891,557526101,"매주 일요일, 법정공휴일","월~금 08:30~19:00, 토 08:30~15:00"
강남역스타약국,동물약국,37.49766742,127.029286,서울특별시 강남구 테헤란로4길 6,263268908,매주 일요일,"수 08:30~20:30, 목 08:30~21:00, 금 08:30~22:00, 토 09:00~17:00, 월, 화 08:30~21:00"
강남예치과동물병원,동물병원,37.51515583,127.042634,서울특별시 강남구 선릉로126길 6,25175585,"매주 토, 일",월~금 09:30~18:30
강남온누리약국,동물약국,37.50115457,127.050833,서울특별시 강남구 선릉로 406,25666480,연중무휴,"월~금 08:00~21:00, 토 09:00~19:00, 일, 법정공휴일 08:00~22:00"
강남온누리약국,동물약국,35.71497145,129.324051,경상북도 경주시 외동읍 입실로 75,547410210,매주 일요일,"월~금 09:00~19:00, 토 09:00~14:30, 법정공휴일 09:00~12:00"
강남웰약국,동물약국,37.50123504,127.026631,서울특별시 강남구 강남대로 432,264405656,연중무휴,"월~일 10:00~20:30, 법정공휴일 10:00~21:00"
강남종합동물병원,동물병원,37.27429095,127.105489,경기도 용인시 기흥구 신갈로 85,312830775,"매주 일요일, 법정공휴일","월~화 09:00~17:00, 수 09:00~19:00, 목~토 09:00~17:00"
강남종합동물병원,동물병원,37.86293551,127.749984,강원도 춘천시 우석로 37,332630513,매주 일요일,"월~금 09:00~19:00, 토 10:00~15:00, 법정공휴일 11:00~15:00"
강남차차약국,동물약국,37.49985293,127.029507,서울특별시 강남구 강남대로94길 27,264654152,"매주 일요일, 법정공휴일","월~금 08:30~21:00, 토 15:00~20:00"
강남퍼스트약국,동물약국,37.51607746,127.020341,서울특별시 강남구 도산대로 104,25157292,매주 일요일,"월~금 10:00~21:00, 토 10:00~18:00"
강남펫,반려동물용품,35.19804748,128.116065,경상남도 진주시 대신로 419,557625959,,
강남펫스타일,반려동물용품,37.49932844,127.043553,서울특별시 강남구 언주로79길 5,7086210021,"매주 일요일, 법정공휴일","월~금 12:00~19:00, 토 12:00~17:00"
강남푸른약국,동물약국,37.86425874,127.720547,강원도 춘천시 경춘로 2362,50714196111,매주 일요일,"월~금 09:00~19:00, 토 09:00~14:00"
강남프라자약국,동물약국,37.51657296,127.03834,서울특별시 강남구 학동로 323,25144222,연중무휴,"월~금, 토 09:00~21:00, 일 10:00~20:00, 법정공휴일 09:00~21:00"
강남허브약국,동물약국,37.51675601,127.040841,서울특별시 강남구 학동로 342,230149272,"매주 일요일, 법정공휴일","월~금 08:30~20:30, 토 08:30~18:00"
강남효약국,동물약국,37.2736556,127.110547,경기도 용인시 기흥구 신구로12번길 11-1,312863379,법정공휴일,"월~금 08:00~24:00, 토 08:00~24:00, 일 08:00~24:00"
강내동물병원,동물병원,36.62321967,127.360262,충청북도 청주시 흥덕구 강내면 가로수로 540-1,432332145,,
강냥이와나드리,반려동물용품,37.27579789,127.227549,경기도 용인시 처인구 포곡읍 포곡로 220,313327136,매주 일요일,월~토 10:00~20:30
강냥이와친구들,미용,37.28163944,127.233134,경기도 용인시 처인구 포곡읍 포곡로 305,313346950,연중무휴,매일 00:00~24:00
강동 솔약국,동물약국,37.53751219,127.139589,서울특별시 강동구 양재대로 1473,24742696,"매주 일요일, 법정공휴일","월~금 09:00~21:00, 토 09:00~18:00"
강동24시 SKY 동물의료센터,동물병원,37.5343384,127.135971,서울특별시 강동구 천호대로 1122,24727579,연중무휴,매일 00:00~24:00
강동동물병원,동물병원,37.54236704,127.141937,서울특별시 강동구 양재대로 1532,24727343,연중무휴,"월~금 10:00~21:00, 토 10:00~21:00, 일 15:00~19:00"
강동동물병원,동물병원,37.83159865,127.733599,강원도 춘천시 신동면 정족1길 6,332563319,"매주 토, 일",월~금 09:00~18:00
강동동물약국,동물약국,37.55305457,127.155949,서울특별시 강동구 동남로 889,24262200,"매주 일요일, 법정공휴일","월~금 09:00~18:30, 토 09:00~13:00"
강동문화복지회관,문예회관,36.09011528,128.454654,경상북도 구미시 인동가산로 392,544802990,"매주 토, 일",월~금 09:00~18:00
강동물병원,동물병원,35.93887068,128.549266,대구광역시 북구 칠곡중앙대로 483,533257579,매주 일요일,"월~금 09:50~18:30, 화 13:30~18:30"
강동물병원,동물병원,35.19090782,128.121824,경상남도 진주시 도동로 231,557610383,매주 일요일,"월~금 09:30~18:00, 토 09:30~13:00"
강동보건약국,동물약국,37.528892,127.124571,서울특별시 강동구 성내로 40,24884100,"매주 일요일, 법정공휴일","월~금 09:00~19:00, 토 09:00~15:00"
강동새경희 약국,동물약국,37.55274302,127.155462,서울특별시 강동구 동남로73길 13,234280100,"매주 일요일, 법정공휴일","월~금 09:00~19:00, 토 09:00~16:00"
강동성실약국,동물약국,37.53670401,127.135707,서울특별시 강동구 진황도로 81,24787001,연중무휴,"월~금 09:00~23:00, 토 09:00~22:00, 일, 법정공휴일 14:00~22:00"
강동아트센터,문예회관,37.55122046,127.157343,서울특별시 강동구 동남로 870,24400500,연중무휴,매일 09:00~18:00
강동약국,동물약국,35.61454499,129.448,울산광역시 북구 동해안로 1441,522983358,매주 일요일,"월~금 09:00~20:00, 토 09:00~19:30, 법정공휴일 09:00~12:00"
강동온누리약국,동물약국,37.54566357,127.143242,서울특별시 강동구 양재대로 1570,221357572,매주 일요일,"월~금 09:00~21:00, 토 09:00~18:00, 일 10:00~17:00"
강동포도약국,동물약국,37.53680572,127.134778,서울특별시 강동구 진황도로 74,24233005,"매주 일요일, 법정공휴일","월~금 08:30~20:00, 토 09:00~15:00"
강동한우리약국,동물약국,37.55039996,127.127917,서울특별시 강동구 올림픽로 778,24813237,연중무휴,"월~금 08:50~20:50, 토 08:50~20:00, 일 09:30~18:30"
강동호원얀국,동물약국,37.52767307,127.127071,서울특별시 강동구 성내로 66,24881512,"매주 일요일, 법정공휴일","월~금 09:00~22:00, 토 09:00~18:00"
강릉굴산사지당간지주,여행지,37.70727935,128.891822,,336405581,연중무휴,매일 00:00~24:00
강릉단오제전수교육관,문예회관,37.74820182,128.895041,강원도 강릉시 단오장길 1,336603940,법정공휴일,매일 09:00~18:00
강릉대관령전망대,여행지,37.75734947,128.806638,강원도 강릉시 성산면 영동고속도로 232,,연중무휴,매일 00:00~24:00
강릉동물병원,동물병원,37.75786009,128.899429,강원도 강릉시 옥가로 18,336417584,연중무휴,"월~금 09:00~18:00, 토 09:00~13:00"
강릉선교장박물관,박물관,37.7872994,128.884542,강원도 강릉시 운정길 63,336485303,매주 월요일,화~일 09:00~17:00
강릉아트센터,문예회관,37.77164458,128.895401,강원도 강릉시 종합운동장길 84,336606800,전시공연에 따라 변동,전시공연에 따라 변동
강릉애견미용아카데미,미용,37.76391246,128.874957,강원도 강릉시 솔올로5번길 33,336444144,매주 일요일,월~토10:00~18:00
강릉원주대학교 박물관,박물관,37.76569493,128.870005,강원도 강릉시 죽헌길 7,336402596,"매주 토, 일, 법정공휴일",월~금 09:00~18:00
강릉중앙약국,동물약국,37.75787259,128.897602,강원도 강릉시 율곡로 2844,336473363,"매주 일요일, 법정공휴일","월~금 08:30~18:00, 토 08:30~13:00"
강릉축협동물병원,동물병원,37.7539588,128.91317,강원도 강릉시 용지로 20,336452101,,
강릉커피박물관,박물관,37.65223553,128.784661,강원도 강릉시 왕산면 왕산로 2171-19,7088880077,,
강민약국,동물약국,35.96730128,129.402527,경상북도 포항시 남구 오천읍 원동로 47,542910958,매주 일요일,"월~금 09:00~18:00, 토 09:00~13:00"
강변그랜드약국,동물약국,37.53678879,127.096161,서울특별시 광진구 광나루로56길 63,24474842,법정공휴일,"월~금 08:30~21:00, 토 08:30~18:00, 일 09:00~18:00"
강변애견미용,미용,37.00536704,127.276194,경기도 안성시 낙원길 128,,매주 일요일,월~토 10:00~18:00
강변약국,동물약국,35.04059019,126.850166,전라남도 나주시 남평읍 강변2길 5-11,619309992,연중무휴,"월~금 09:00~21:00, 토~일, 법정공휴일 09:00~17:00"
강봉윤약국,동물약국,37.42132237,126.690876,인천광역시 연수구 원인재로 315,328112023,"매주 일요일, 법정공휴일","월~금 09:00~16:00, 토 09:30~16:00"
강북 24시 N 동물의료센터,동물병원,37.60581661,127.024368,서울특별시 성북구 삼양로4길 3,29840075,연중무휴,매일 00:00~24:00
강북동물병원,동물병원,37.62883597,127.039874,서울특별시 강북구 오현로 194,29857525,,
강북동물병원,동물병원,37.59619427,127.035199,서울특별시 성북구 종암로 65,29244555,연중무휴,매일 10:00~20:00
강북동물병원,동물병원,36.47233563,127.134321,충청남도 공주시 번영1로 54,418569900,"매주 토, 일",월~금 10:00~18:00
강북동물병원,동물병원,35.91676339,128.821045,경상북도 경산시 하양읍 조산천동길 48,538527965,,
강북동산약국,동물약국,35.94398644,128.557919,대구광역시 북구 팔거천동로 223,533133809,"매주 일요일, 법정공휴일","월~금 09:00~20:00, 토 09:00~16:00"
강북문화예술회관,문예회관,37.64098979,127.013878,서울특별시 강북구 삼각산로 85,29443068,매주 일요일,전시공연에 따라 변동
강북약국,동물약국,35.9359091,128.549446,대구광역시 북구 칠곡중앙대로 450,532328736,연중무휴,"월~토 08:00~22:00, 일 14:00~22:00"
강북우리동물의료센터,동물병원,37.65685969,127.040005,서울특별시 도봉구 도봉로 586,29997582,연중무휴,"월~토 09:30~20:00, 일, 법정공휴일 09:30~18:00"
강북조은약국,동물약국,35.94792123,128.56718,대구광역시 북구 학정동로 45,533262929,"매주 일요일, 법정공휴일",월~금 09:00~19:15 토 09:00~14:15
강빛약국,동물약국,37.57177069,127.173328,서울특별시 강동구 아리수로93나길 26,269495111,연중무휴,"월~금 08:30~20:00, 토 08:30~15:00, 일, 법정공휴일 08:30~14:00"
강사모백화점,미용,37.44845674,126.675685,인천광역시 미추홀구 인하로 247,322064545,매주 일요일,월~토 10:00~20:00
강사모애견백화점,미용,37.52710561,126.811036,경기도 부천시 성지로 89-1,326814544,매주 일요일,월~토 10:00~21:00
강사모펫,반려동물용품,37.59503781,127.079425,서울특별시 중랑구 망우로 241,50713833651,연중무휴,매일 10:00~20:00
강산동물병원,동물병원,37.29195144,127.634321,경기도 여주시 세종로 68-17,318868390,,
강산동물병원,동물병원,37.02226322,127.173097,경기도 안성시 원곡면 덕봉서원로 201,316566166,,
강산약국,동물약국,37.71450879,126.76006,경기도 파주시 경의로 1090,3180357102,"매주 토, 일, 법정공휴일",월~금 09:00~19:00
강산약국,동물약국,36.20516711,127.084517,충청남도 논산시 중앙로 472,417323233,"매주 일요일, 법정공휴일","월, 금 08:30~19:00, 화~목 08:30~21:00, 토 08:30~14:00"
강생이꼬까,미용,37.59344754,127.132619,경기도 구리시 아차산로432번길 22,,,
강생이네,미용,35.47987662,128.75286,경상남도 밀양시 미리벌중앙로 10,,매주 일요일,월~토 10:00~19:00
강서 한강공원,여행지,37.58604147,126.817145,서울특별시 강서구 양천로27길 279-23,237800621,연중무휴,매일 00:00~24:00
강서구민회관,문예회관,37.55343642,126.843649,서울특별시 강서구 우장산로 66,236646046,법정공휴일,매일 09:00~18:00
강서동물병원,동물병원,37.53222689,126.839529,서울특별시 강서구 곰달래로15길 46,226915900,매주 일요일,"월~금 10:00~18:00, 토 10:00~17:00"
강서동물병원,동물병원,36.63266717,127.424957,충청북도 청주시 흥덕구 비하로 64,432337512,매주 일요일,"월~금10:00~18:00, 토 10:00~16:00"
강서보건약국,동물약국,37.56729251,126.823835,서울특별시 강서구 양천로30길 123-28,220887501,연중무휴,"월~금 09:00~20:00, 토 09:00~15:00, 일 15:00~19:00, 법정공휴일 10:00~17:00"
강서약국,동물약국,37.53703475,126.863259,서울특별시 강서구 등촌로 79,226442154,매주 일요일,"월~금 09:00~20:00, 토 09:00~18:00, 법정공휴일 09:00~16:00"
강서종로약국,동물약국,37.54868676,126.836035,서울특별시 강서구 강서로 257,226068268,매주 일요일,월~토 08:30~22:00
강서천사약국,동물약국,37.55811857,126.837465,서울특별시 강서구 공항대로36길 9,226620266,"매주 일요일, 법정공휴일","월~금 08:30~18:30, 토 09:00~13:30"
강서튼튼약국,동물약국,37.55900042,126.823921,서울특별시 강서구 마곡서로 56,226624904,법정공휴일,"월~금 09:00~20:30, 토 09:00~18:00, 일 09:00~18:00"
강서홈약국,동물약국,37.55846996,126.854819,서울특별시 강서구 화곡로 398,226591823,매주 토요일,"월~금, 일, 법정공휴일 10:00~22:30"
강서YD동물의료센터,동물병원,37.55695579,126.852242,서울특별시 강서구 화곡로 371,25187500,연중무휴,매일 00:00~24:00
강아지 고양이 편의점 경성대점,반려동물용품,35.13856407,129.101044,부산광역시 남구 수영로325번길 11,50713458653,연중무휴,매일 00:00~23:50
강아지 고양이 편의점 미금점,반려동물용품,37.34726806,127.11312,경기도 성남시 분당구 미금일로 58,50713237107,연중무휴,매일 00:00~24:00
강아지 고양이 편의점 백석점,반려동물용품,37.64280309,126.786193,경기도 고양시 일산동구 장백로 59,50713690285,연중무휴,매일 00:00~24:00
강아지 고양이 편의점 삼송점,반려동물용품,37.64906411,126.896975,경기도 고양시 덕양구 동송로 33,50713946526,연중무휴,매일 00:00~24:00
강아지 고양이와함께 원주점,반려동물용품,37.31970512,127.971265,강원도 원주시 동부순환로 33,337664286,연중무휴,매일 09:00~22:00
강아지 고양이편의점 계양점,반려동물용품,37.52493074,126.698221,인천광역시 계양구 아나지로 60,50713623230,연중무휴,매일 00:00~24:00
강아지 그리다,미용,35.79577974,127.138636,전라북도 전주시 완산구 덕적골1길 22,50713075913,매주 월요일,화~일 10:00~19:00
강아지 살롱,미용,35.23238166,128.849035,경상남도 김해시 분성로 14-1,50714650916,연중무휴,매일 10:00~19:00
강아지 지니,미용,35.50276498,129.416954,울산광역시 동구 봉수로 172,522520101,연중무휴,매일 10:00~22:00
강아지간식과 아이스크림,반려동물용품,37.71459778,126.851706,경기도 고양시 덕양구 통일로1108번길 193,,매주 일요일,매일 10:00~22:00
강아지고양이 전주아중점,반려동물용품,35.82968758,127.170932,전라북도 전주시 덕진구 아중3길 15,317764003,,
강아지고양이대통령24 동탄점,반려동물용품,37.17207623,127.104078,경기도 화성시 동탄대로 181,7075001197,연중무휴,매일 00:00~24:00
강아지고양이편의점 개봉점,반려동물용품,37.48717436,126.856111,서울특별시 구로구 개봉로 17,50714378029,연중무휴,매일 00:00~24:00
강아지고양이편의점 걸포점,반려동물용품,37.63518749,126.707013,경기도 김포시 걸포1로 40,,연중무휴,매일 00:00~24:00
강아지고양이편의점 고척점,반려동물용품,37.49677361,126.862248,서울특별시 구로구 경인로 377-1,233949003,연중무휴,매일 00:00~24:00
강아지고양이편의점 남가좌점,반려동물용품,37.57014126,126.916848,서울특별시 서대문구 모래내로13길 9-28,233949003,연중무휴,매일 00:00~24:00
강아지고양이편의점 답십리점,반려동물용품,37.57247392,127.050972,서울특별시 동대문구 사가정로 33,,연중무휴,매일 00:00~24:00
강아지고양이편의점 대구범물점,반려동물용품,35.82049849,128.639383,대구광역시 수성구 용학로 272,50714422650,연중무휴,매일 00:00~24:00
강아지고양이편의점 대전둔산점,반려동물용품,36.34930822,127.388604,대전광역시 서구 둔산남로 99,50713441628,연중무휴,매일 00:00~24:00
강아지고양이편의점 동탄점,반려동물용품,37.20177577,127.103249,경기도 화성시 동탄대로시범길 235,50713436475,연중무휴,매일 00:00~24:00
강아지고양이편의점 망원점,반려동물용품,37.55312639,126.906147,서울특별시 마포구 포은로 65,50714381772,연중무휴,매일 00:00~24:00
강아지고양이편의점 망원한강점,반려동물용품,37.55596637,126.897013,서울특별시 마포구 망원로 1-4,50714113948,연중무휴,매일 00:00~24:00
강아지고양이편의점 목동점,반려동물용품,37.53781654,126.872598,서울특별시 양천구 목동중앙로 97,50713297011,연중무휴,매일 00:00~24:00
강아지고양이편의점 부산용호점,반려동물용품,35.11277414,129.110836,부산광역시 남구 용호로 220,233949003,연중무휴,매일 00:00~24:00
강아지고양이편의점 분당정자점,반려동물용품,37.37019684,127.110085,경기도 성남시 분당구 느티로51번길 17,,연중무휴,매일 00:00~24:00
강아지고양이편의점 삼전점,반려동물용품,37.50287551,127.088889,서울특별시 송파구 삼전로6길 15,50713928193,연중무휴,매일 00:00~24:00
강아지고양이편의점 상계점,반려동물용품,37.66144053,127.059125,서울특별시 노원구 노원로 540,233949003,연중무휴,매일 00:00~24:00
강아지고양이편의점 석수점,반려동물용품,37.41600703,126.912902,경기도 안양시 만안구 경수대로1201번길 30,50713590378,연중무휴,매일 00:00~24:00
강아지고양이편의점 신정점,반려동물용품,37.5204176,126.851341,서울특별시 양천구 중앙로43길 14,,연중무휴,매일 00:00~24:00
강아지고양이편의점 쌍문점,반려동물용품,37.65873925,127.02806,서울특별시 도봉구 시루봉로 88,233949003,연중무휴,매일 00:00~24:00
강아지고양이편의점 양주옥정점,반려동물용품,37.82121755,127.097614,경기도 양주시 옥정동로7길 30,,연중무휴,매일 00:00~24:00
강아지고양이편의점 연남점,반려동물용품,37.56215623,126.926723,서울특별시 마포구 동교로46길 40,50714565787,연중무휴,매일 00:00~24:00
강아지고양이편의점 울산남구점,반려동물용품,35.52723999,129.323109,울산광역시 남구 수암로 145,50713717740,연중무휴,매일 00:00~24:00
강아지고양이편의점 울산점,반려동물용품,35.52452876,129.432397,울산광역시 동구 명덕5길 16,50713738714,연중무휴,매일 00:00~24:00
강아지고양이편의점 울산중구점,반려동물용품,35.56720173,129.350447,울산광역시 중구 남외2길 39,,연중무휴,매일 00:00~24:00
강아지고양이편의점 인천간석점,반려동물용품,37.46129055,126.70807,인천광역시 남동구 남동대로 883,233949003,연중무휴,매일 00:00~24:00
강아지고양이편의점 인천만수점,반려동물용품,37.46221255,126.735831,인천광역시 남동구 만수로 75,233949003,연중무휴,매일 00:00~24:00
강아지고양이편의점 인천석남점,반려동물용품,37.50686662,126.674055,인천광역시 서구 옻우물로8번길 10,233949003,연중무휴,매일 00:00~24:00
강아지고양이편의점 인천점,반려동물용품,37.44850393,126.70715,인천광역시 남동구 남동대로 739,7048334416,연중무휴,매일 00:00~24:00
강아지고양이편의점 일산가로수길점,반려동물용품,37.66606251,126.756436,경기도 고양시 일산서구 주엽로 80,50713927229,연중무휴,매일 00:00~24:00
강아지고양이편의점 중곡점,반려동물용품,37.55487976,127.087723,서울특별시 광진구 용마산로1길 14,233949003,연중무휴,매일 00:00~24:00
강아지고양이편의점 중랑천점,반려동물용품,37.5631482,127.080389,서울특별시 광진구 긴고랑로 35,50714932236,연중무휴,매일 00:00~24:00
강아지고양이편의점 평촌점,반려동물용품,37.38456652,126.963911,경기도 안양시 동안구 관평로79번길 14,233949003,연중무휴,매일 00:00~24:00
강아지고양이편의점 평택점,반려동물용품,36.99221174,127.124592,경기도 평택시 용죽2로 32-27,50713592851,연중무휴,매일 00:00~24:00
강아지고양이편의점 포항점,반려동물용품,36.02585827,129.351425,경상북도 포항시 북구 양학로32번길 14-6,50714605122,연중무휴,매일 00:00~24:00
강아지고양이편의점 하남미사점,반려동물용품,37.56014966,127.186621,경기도 하남시 미사강변남로 45,50714650783,연중무휴,매일 00:00~24:00
강아지고양이편의점 한성대점,반려동물용품,37.58809742,127.008277,서울특별시 성북구 동소문로6길 20-5,50713167496,연중무휴,매일 00:00~24:00
강아지고양이편의점 혁신점,반려동물용품,35.16997677,128.131921,경상남도 진주시 범골로60번길 12,,연중무휴,매일 00:00~24:00
강아지고양이편의점 호매실,반려동물용품,37.27135702,126.957135,경기도 수원시 권선구 서수원로523번길 30-23,50713482211,연중무휴,매일 00:00~24:00
강아지고양이편의점 회기점,반려동물용품,37.5897787,127.055888,서울특별시 동대문구 이문로 26,233949003,연중무휴,매일 00:00~24:00
강아지공간,카페,37.33290687,127.108438,경기도 용인시 수지구 용구대로 2769,312610969,연중무휴,매일 11:30~21:00
강아지공작소,미용,36.35451599,127.332267,대전광역시 유성구 계룡로16번길 37-18,50713663297,"매주 월, 화",수~일 10:00~18:00
강아지군대가는날,미용,37.50408665,126.846696,서울특별시 구로구 고척로27길 48,220604220,매주 일요일,월~토 10:00~19:00
강아지꼬순내,미용,37.08954074,127.052484,경기도 평택시 신장로 167,50713626552,,
강아지꿈,미용,37.35190376,127.94047,강원도 원주시 남산로 178,50713411787,휴무일 변동,매일 10:00~18:00
강아지나라,반려동물용품,37.49107264,126.721291,인천광역시 부평구 경원대로 1370-1,325268280,매주 일요일,월~토 10:00~22:00
강아지나라,미용,35.43320885,129.308279,울산광역시 울주군 온산읍 덕신로 246,522371171,매주 일요일,"월~금 10:00~18:00, 토 10:00~14:00"
강아지나라,미용,35.7989156,126.884471,전라북도 김제시 남북로 165-1,635485222,매주 일요일 (미용만),"월~토 09:00~22:00, 일 12:00~18:00"
강아지나라동물병원,동물병원,37.71965659,127.184182,경기도 남양주시 진접읍 장현로 112-1,315745957,매주 일요일,"월~금 10:00~19:00, 토 변동"
강아지놀이터,미용,37.53934262,127.093196,서울특별시 광진구 아차산로 458,24555582,매주 일요일,월~토 10:00~19:00
강아지당,미용,35.20941166,129.104634,부산광역시 동래구 명장로63번길 132,,매주 매주 월요일(호텔 연중무휴),화~일 10:00~19:00
강아지대통령,반려동물용품,37.51240531,127.054132,서울특별시 강남구 삼성로 570,15882469,"매주 토, 일",월~금 09:00~18:00
강아지대학로,카페,37.58009773,127.003684,서울특별시 종로구 대학로12길 92,,연중무휴,매일 13:00~20:30
강아지똥,미용,37.39370161,126.920672,경기도 안양시 만안구 삼덕로 46-1,314415755,연중무휴,매일 10:00~20:00
강아지똥,미용,35.23619031,128.867324,경상남도 김해시 내외중앙로 72,553354253,연중무휴,매일 10:00~19:00
강아지랑 애견용품할인매장,반려동물용품,37.47935868,126.89187,서울특별시 구로구 남부순환로105길 14,28574336,매주 월요일,화~일 10:00~21:00
강아지랑고양이,미용,38.20595731,128.584823,강원도 속초시 번영로 69,336320809,,
강아지를 부탁해,위탁관리,35.86544147,128.595848,대구광역시 중구 달구벌대로 2125-3,50713315821,연중무휴,매일 10:00~20:00
강아지마을,미용,37.17004489,128.991942,강원도 태백시 황지로 125,335541548,매주 일요일,월~토 11:00~16:00
강아지마을,미용,36.8029988,127.119569,충청남도 천안시 서북구 쌍용12길 10-4,415720045,"2, 4째주 일요일",매일 09:30~20:00
강아지마켓,반려동물용품,35.25861222,128.612301,경상남도 창원시 의창구 남산로 20,,,
강아지목욕탕,반려동물용품,37.50171999,126.772375,경기도 부천시 중동로254번길 64,50713315330,연중무휴,매일 00:00~24:00
강아지미용실,미용,37.38721948,127.294874,경기도 광주시 초월읍 무들로 56-3,317659079,매주 일요일,월~토 10:00~19:00
강아지미용실,미용,36.59568365,127.292063,세종특별자치시 조치원읍 대첩로 36,,매주 일요일,월~토 11:00~20:00
강아지미용실,미용,35.456493,128.532186,경상남도 창녕군 영산면 영산중앙길 47,,매주 일요일,월~토 10:00~18:00
강아지미용실,미용,35.23337412,128.855718,경상남도 김해시 함박로 16,553253662,,
강아지미용실,미용,33.24762171,126.567747,제주특별자치도 서귀포시 정방로 12,,"매주 토, 일",월~금 09:00~17:30
강아지미용실502,미용,37.59420281,127.101065,서울특별시 중랑구 용마공원로 16,,매주 일요일,월~토 10:00~20:00
강아지미용실왕왕,반려동물용품,37.54891874,126.949292,서울특별시 마포구 마포대로11길 92,27044993,매주 일요일,월~토 10:00~19:00
강아지분양 미니몽 은평점,반려동물용품,37.61566482,126.924446,서울특별시 은평구 통일로 803,23557775,연중무휴,매일 10:00~22:00
강아지빵,미용,35.53965699,129.333743,울산광역시 남구 왕생로66번길 24,50713270025,매주 월요일,화~일 10:30~21:00
강아지사랑,미용,36.30374257,127.350469,대전광역시 서구 가수원동 762,425437065,,
강아지산책,미용,36.289482,127.239738,충청남도 계룡시 엄사면 번영2길 4-39,425510724,매주 월요일,화~토 10:00~18:30
강아지세상,미용,37.65737486,127.028192,서울특별시 도봉구 해등로 255,29999273,매주 일요일,월~토 10:30~07:30
강아지세상고양이세상,반려동물용품,35.01331251,126.789928,전라남도 나주시 호수로 68,613320733,연중무휴,매일 10:00~21:00
강아지숲 박물관,박물관,37.73643502,127.66202,강원도 춘천시 남산면 충효로 437,339131400,"1월1일, 설, 추석 당일, 매주 월요일",화~일 10:00~18:00
강아지숲 반려견 테마파크,여행지,37.73643502,127.66202,강원도 춘천시 남산면 충효로 437,339131400,매주 월요일,화~일 10:00~18:00
강아지스푼,반려동물용품,37.86337492,126.825783,경기도 파주시 문산읍 사임당로 337,7077970461,"매주 토,일",월~금 10:00~18:00
강아지식탁 낙성대점,반려동물용품,37.4753303,126.965853,서울특별시 관악구 인헌2길 19,50713941313,매주 수요일,목~화 10:00~21:00
강아지아이돌,반려동물용품,37.49754372,127.052643,서울특별시 강남구 선릉로 312,50714731777,매주 일요일,"월~금 10:00~20:00, 토~일 10:00~14:00"
강아지앤고양이,반려동물용품,37.55410692,126.837751,서울특별시 강서구 우장산로2길 15,264941011,"매주 토, 일",월~금 10:00~20:00
강아지야,미용,37.67929792,127.210648,경기도 남양주시 오남읍 진건오남로 516-20,315753551,매주 일요일,월~토 09:00~20:00
강아지와고양이,미용,35.84130361,128.758144,경상북도 경산시 압량읍 고분길 13,538181088,매주 일요일,월~토 10:00~09:30
강아지와고양이 아울렛 포천점,반려동물용품,37.76266766,127.224533,경기도 포천시 내촌면 금강로 2056,50713584286,연중무휴,"월~금 09:30~20:00, 토~일 10:00~20:00"
강아지와고양이 애견용품할인점,반려동물용품,37.44724437,129.16655,강원도 삼척시 중앙로 271,335735566,,
강아지와고양이 태백점,반려동물용품,37.17089374,128.991963,강원도 태백시 황지로 135,335522387,,
강아지와고양이나라 동물병원,동물병원,37.40449094,126.725716,인천광역시 남동구 은봉로312번길 29-14,324393578,연중무휴,"월~금 10:00~20:00, 토, 법정공휴일 10:00~19:00"
강아지와고양이나라 불광점,반려동물용품,37.61523052,126.925968,서울특별시 은평구 통일로 790,27474249,연중무휴,매일 10:00~22:00
강아지와고양이아울렛 거창점,반려동물용품,35.68737856,127.924578,경상남도 거창군 거창읍 강남로 256,559417003,연중무휴,매일 09:30~21:00
강아지와고양이아울렛 석전점,미용,35.2268801,128.574801,경상남도 창원시 마산회원구 양덕옛1길 45,,,
강아지와산책,미용,37.35817049,126.731603,경기도 시흥시 옥구천동로 422,,매주 화요일,수~월 10:00~19:00
강아지와산책,반려동물용품,35.55496014,129.276916,울산광역시 중구 태화강국가정원길 9,522240706,연중무휴,매일 10:00~22:00
강아지왈츠,미용,37.2974294,127.119287,경기도 용인시 기흥구 용인향교로 29,,연중무휴,매일 10:00~18:00
강아지왈츠,미용,37.42399845,126.671361,인천광역시 연수구 새말로 6,328133560,매주 월요일,화~일 11:00~19:00
강아지왈츠 카페,카페,36.34872388,127.382183,대전광역시 서구 계룡로491번길 90,7088868989,매주 월요일,화~일 13:00~20:00
강아지의하루,반려동물용품,35.17675704,129.123592,부산광역시 해운대구 센텀중앙로 145,,매주 일요일,"월~금 09:30~19:00, 토 09:30~16:00"
강아지이발소,카페,35.23266897,128.865954,경상남도 김해시 내외중앙로 29,50713387247,격주 일요일,매일 10:00~20:00
강아지이발소홍s,미용,35.56450673,129.343737,울산광역시 중구 해오름5길 25,50713657464,매주 월요일,화~일 10:00~19:00
강아지정류장,카페,37.54992339,126.874825,서울특별시 강서구 양천로 709,236621207,매주 월요일,화~일 08:00~20:00
강아지집,미용,37.51429641,127.04943,서울특별시 강남구 봉은사로71길 32,50713880802,"매주 월, 화",수~일 10:00~19:00
강아지집,카페,37.34890241,127.941109,강원도 원주시 천사로 148,50714806679,연중무휴,매일 09:00~22:00
강아지천국,미용,35.9359091,128.549446,대구광역시 북구 칠곡중앙대로 450,533115335,매주 일요일,월~토 10:00~19:00
강아지캠퍼스,반려동물용품,37.0973885,126.869501,경기도 화성시 장안면 황골길 118,16665749,연중무휴,매일 00:00~24:00
강아지클럽,반려동물용품,37.04181091,127.927835,충청북도 충주시 동량면 충원대로 1315-2,438544543,,
강아지트,미용,35.81658081,128.732418,경상북도 경산시 경산로16길 13,50714351155,연중무휴,매일 00:00~24:00
강아지풀,미용,37.26153322,127.039524,경기도 수원시 영통구 효원로 363,7077608308,매주 일요일,월~토 10:00~18:00
강아지풀애견,반려동물용품,36.35272404,127.336954,대전광역시 유성구 유성대로680번길 117,423313535,매주 일요일,월~토 09:00~18:00
강아지풍경,미용,36.34420778,127.381631,대전광역시 서구 문정로2번길 25,424851204,매주 일요일,월~토 10:00~20:00
강애동물병원,동물병원,35.18658143,128.691737,경상남도 창원시 성산구 안민안길 20,552625152,,
강앤정 동물병원,동물병원,37.57442036,126.917897,서울특별시 서대문구 가재울미래로 2,23057505,연중무휴,"월~토 09:30~22:30, 일, 법정공휴일 09:30~18:30"
강약국,동물약국,37.50706767,126.96233,서울특별시 동작구 서달로 158,28168766,"매주 일요일, 법정공휴일","월~금 09:00~21:00, 토 09:00~19:00"
강약국,동물약국,37.30294789,126.968637,경기도 수원시 장안구 덕영대로407번길 34-22,312076770,매주 일요일,"월~금 08:30~20:30, 토 09:00~20:30, 법정공휴일 09:00~21:00"
강약국,동물약국,36.46345085,127.280519,세종특별자치시 금남면 용포로 53,448667018,"매주 일요일, 법정공휴일","월~금 08:30~19:00, 토 08:30~12:30"
강약국,동물약국,35.21775763,129.085954,부산광역시 금정구 시실로 13,515148787,"매주 일요일, 법정공휴일","월~금 08:40~18:40, 토 09:00~13:00"
강약국,동물약국,35.15802759,129.057555,부산광역시 부산진구 가야대로 785,518060789,연중무휴,"월~금 08:40~22:00, 토 09:00~20:00, 일 10:00~14:00, 법정공휴일 10:00~16:00"
강약국,동물약국,35.18552487,129.085991,부산광역시 연제구 고분로 32,518637003,법정공휴일,"월~금 09:00~19:30, 토 09:00~15:00, 일 09:00~13:00"
강약국,동물약국,35.39636639,128.837507,경상남도 밀양시 삼랑진읍 외송중앙길 3,553529955,매주 일요일,"월~금 08:00~18:00, 토 08:00~13:00"
강영석동물병원,동물병원,36.60264846,126.66694,충청남도 홍성군 홍성읍 조양로151번길 25,416334200,매주 일요일,"월~금 09:00~18:00, 토 09:00~12:00"
강원경찰박물관,박물관,37.92530023,127.749932,강원도 춘천시 신북읍 신샘밭로 361,332450481,"1월1일, 설, 추석 당일, 매주 월요일","화~일 하절기 09:00~18:00, 동절기 09:00~17:00"
강원대학교 부설 야생동물구조센터,동물병원,37.86802431,127.748387,강원도 춘천시 강원도대학길 1,332507500,,
강원대학교 부속 동물병원,동물병원,37.86802431,127.748387,강원도 춘천시 강원도대학길 1,332508606,"매주 일요일, 법정공휴일","월~금 09:00~18:00, 토 변동"
강원대학교 중앙박물관,박물관,37.86802431,127.748387,강원도 춘천시 강원도대학길 1,332508077,"1월1일, 설, 추석 당일, 매주 월요일",화~일 09:00~18:00
강원도 디엠제트박물관,박물관,38.57627905,128.382573,강원도 고성군 현내면 통일전망대로 369,336810625,"1월1일, 매주 월요일","화~일 하절기 09:00~18:00, 동절기 09:00~17:00"
강원도산림박물관,박물관,37.92264687,127.72516,강원도 춘천시 화목원길 24,332486685,"1월1일, 설, 추석 당일, 첫째주 월요일","화~일 하절기 09:00~18:00, 동절기 09:00~17:00"
강원도탄광문화촌,박물관,37.2631059,128.466905,강원도 영월군 북면 밤재로 351,333721520,매주 월요일,"화~일 하절기 10:00~18:00, 동절기 10:00~17:00"
강원동물병원,동물병원,37.6856122,127.878341,강원도 홍천군 홍천읍 무궁화로 90,334348252,"매주 일요일, 법정공휴일","월~금 09:00~18:00, 토 09:00~14:00"
강원동물병원,동물병원,37.35153381,127.950166,강원도 원주시 평원로 67,337667494,매주 일요일,"월~금 09:30~20:00, 토 변동"
강원랜드 뿌리관,박물관,37.22455147,128.815814,강원도 정선군 사북읍 삼삼길 33,335920103,매주 일요일,화~일 10:00~17:00
강원양돈축산업협동조합동물병원,동물병원,37.76292078,128.877222,강원도 강릉시 솔올로 9,336422212,,
강원온누리약국,동물약국,37.8791265,127.729261,강원도 춘천시 금강로 69,332524249,"매주 일요일, 법정공휴일","월~금 08:30~20:30, 토 08:30~13:30"
강원프라자약국,동물약국,38.15619762,128.608936,강원도 양양군 강현면 물치1길 4,336736616,매주 토요일,"월~토, 법정공휴일 08:00~20:00"
강이네하우스,펜션,38.06692416,128.583355,강원도 양양군 서면 상평1길 17-2,50713142453,연중무휴,매일 15:00~11:00
강이동물병원,동물병원,36.5514956,126.775973,충청남도 예산군 광시면 예당로 190,413324948,,
강일명문약국,동물약국,37.57194955,127.173932,서울특별시 강동구 아리수로93나길 38,24417582,매주 일요일,"월,화, 목,금 09:00~20:00, 수 09:00~21:00, 토 09:00~15:00"
강주해바라기마을,여행지,35.32130962,128.333096,경상남도 함안군 법수면 강주4길 37,555835387,연중무휴,매일 08:00~19:00
강쥐나라애견,미용,34.97470005,128.327523,경상남도 고성군 고성읍 중앙로 67-1,556743537,매주 일요일,월~토 10:00~19:00
강진동물약품병원,동물병원,34.64070719,126.778625,전라남도 강진군 강진읍 보은로 196,614345288,매주 일요일,"월~금 08:00~18:00, 토 08:00~12:00"
강진미술관,미술관,34.6439669,126.768594,전라남도 강진군 강진읍 동문길 39,,매주 일요일,월~토 09:30~17:30
강진아트홀,문예회관,34.63817527,126.770499,전라남도 강진군 강진읍 영랑로1길 9,614303972,매주 월요일,화~일 09:00~22:00
강진완도축협동물병원,동물병원,34.63725711,126.782019,전라남도 강진군 군동면 청자로 75-17,614331511,"매주 토, 일",월~금 09:00~18:00
강천섬유원지,여행지,37.23474348,127.707936,경기도 여주시 강천면 강천리길 88,,연중무휴,매일 00:00~24:00
강촌꿈에그린,펜션,37.78745102,127.640485,강원도 춘천시 남산면 보매기1길 61-56,,,
강촌레일파크,여행지,37.84274539,127.550947,강원도 춘천시 남산면 서백길 57,332451002,연중무휴,"매일 하절기 09:00~17:00, 동절기 09:00~15:30"
강하약국,동물약국,37.49337278,127.400784,경기도 양평군 강하면 강남로 118,317742210,"매주 일요일, 법정공휴일","월~금 09:00~19:30, 토 10:00~19:00"
강한 우리동물병원,동물병원,36.80746033,126.772224,충청남도 당진시 합덕읍 중동길 32,,,
강해철 동물병원,동물병원,36.5854014,128.185546,경상북도 문경시 당교로 205,545531974,,
강현약국,동물약국,38.15646122,128.60923,강원도 양양군 강현면 동해대로 3585,336716715,매주 토요일,"월~목 09:00~20:00, 금 09:00~17:00, 일 09:00~18:00"
강화 고벵이 오션뷰 수영장 애견동반 펜션,펜션,37.6273168,126.37992,인천광역시 강화군 화도면 해안남로 2506-16,50714941338,연중무휴,매일 15:00~11:00
강화 로만티카애견리조트,펜션,37.60418699,126.411654,인천광역시 강화군 화도면 해안남로 1986,50713514569,연중무휴,매일 15:00~11:00
강화 로맨틱큐브펜션,펜션,37.60244201,126.491252,인천광역시 강화군 길상면 해안남로 664-11,,연중무휴,매일 15:00~11:00
강화 마니산스토리,펜션,37.6096682,126.396051,인천광역시 강화군 화도면 해안남로2220번길 30,,연중무휴,매일 15:00~11:00
강화 아우라 독채펜션,펜션,37.60577455,126.40127,인천광역시 강화군 화도면 해안남로 2166-32,,연중무휴,매일 14:00~11:00
강화 어나더153 애견펜션,펜션,37.5944154,126.437672,인천광역시 강화군 화도면 해안남로 1669-12,50713221530,연중무휴,매일 15:00~11:00
강화 제임스펜션,펜션,37.71753294,126.384849,인천광역시 강화군 내가면 강화서로227번길 51,,연중무휴,매일 15:00~11:00
강화 터 애견펜션,펜션,37.61126367,126.384841,인천광역시 강화군 화도면 해안남로 2297-26,,연중무휴,매일 15:00~11:00
강화 팽나무 펜션,펜션,37.6174018,126.388439,인천광역시 강화군 화도면 동녘말길 41-4,5057650603,연중무휴,매일 15:00~11:00
강화 해마루 애견동반 펜션,펜션,37.60908898,126.386917,인천광역시 강화군 화도면 해안남로 2289,,연중무휴,매일 15:00~11:00
강화 향기정원 애견동반펜션,펜션,37.60696815,126.400736,인천광역시 강화군 화도면 해안남로 2166-39,,연중무휴,매일 15:00~11:00
강화도바다네스파펜션,펜션,37.60624479,126.479886,인천광역시 강화군 길상면 해안남로 789-17,5053569622,연중무휴,매일 15:00~11:00
강화돌담캠핑 글램핑,펜션,37.70120264,126.328233,인천광역시 강화군 삼산면 삼산북로 397-1,50713825373,연중무휴,매일 15:00~11:00
강화문예회관,문예회관,37.74536636,126.474573,인천광역시 강화군 강화읍 고비고개로19번길 12,329307046,"매주 토, 일, 법정공휴일",월~금 08:00~22:00
강화역사박물관,박물관,37.77371034,126.435338,인천광역시 강화군 하점면 강화대로 994-19,329344296,"1월1일, 설, 추석 당일, 매주 월요일",화~일 09:00~18:00
강화자연사박물관,박물관,37.77459527,126.434721,인천광역시 강화군 하점면 강화대로 994-33,329344296,"1월1일, 설, 추석 당일, 매주 월요일",화~일 09:00~18:00
강화전쟁박물관,박물관,37.73357906,126.515997,인천광역시 강화군 강화읍 해안동로1366번길 18,329344296,매주 월요일,화~일 09:00~18:00
강화종로약국,동물약국,37.74505385,126.487492,인천광역시 강화군 강화읍 강화대로 387,319320497,연중무휴,"월~토 08:00~21:00, 일 14:00~20:00, 법정공휴일 09:00~20:00"
같은마음,미용,37.49119317,126.49663,인천광역시 중구 햇내로13번길 8,50714631248,연중무휴,매일 10:00~20:00
개가사는그집,카페,37.72775258,126.734377,경기도 파주시 책향기로 573,319378222,매주 월요일,화~일 14:00~21:00
개가사는그집 펜션,펜션,37.73923783,127.50469,경기도 가평군 가평읍 복장포길 85,50714101734,연중무휴,매일 15:00~11:00
개간식연구소,반려동물용품,36.89998767,126.630403,충청남도 당진시 북문로1길 28,,,
개간식집,반려동물용품,37.61175602,127.075621,서울특별시 중랑구 중랑역로 205,,"법정공휴일, 매주 수요일",목~화 12:00~20:00
개간지 애견카페,카페,37.336637,126.809391,경기도 안산시 단원구 선부광장1로 38,314015570,매주 화요일,수~월 12:00~19:00
개고몰,반려동물용품,37.52021449,126.624478,인천광역시 서구 보석로11번안길 14,50713015719,매주 일요일,"월~금 10:00~19:00, 토 10:00~15:00"
개과천선,미용,37.65489342,127.069603,서울특별시 노원구 노원로30길 40,50713824335,매주 월요일,화~일 10:00~19:00
개과천선,반려동물용품,37.53442461,126.835477,서울특별시 양천구 월정로 177,226050558,매주 일요일,월~토 10:00~22:00
개과천선,반려동물용품,37.52167469,126.721197,인천광역시 부평구 부평대로 337,7047337777,연중무휴,"월~금 10:00~19:00, 토~일 09:00~21:00"
개구쟁이,미용,35.96766939,129.404327,경상북도 포항시 남구 오천읍 냉천로302번길 48,542921235,연중무휴,매일 10:00~21:00
개군약국,동물약국,37.42612694,127.537725,경기도 양평군 개군면 하자포길 33,317735960,"매주 일요일, 법정공휴일","월~금 09:30~20:00, 토 09:30~18:00"
개굿즈,반려동물용품,37.53386505,126.636927,인천광역시 서구 크리스탈로 100,,"매주 토, 일",월~금 10:00~18:00
개금금성당약국,동물약국,35.15112936,129.023531,부산광역시 부산진구 냉정로 217,518930222,"매주 일요일, 법정공휴일","월~금 09:00~19:00, 토 09:00~14:00"
개금동물병원,동물병원,35.15156388,129.012824,부산광역시 사상구 가야대로 367,513249954,매주 일요일,"월~금 9:30~18:30, 토 9:30~16:30"
개금현대약국,동물약국,35.14833737,129.019772,부산광역시 부산진구 엄광로 33,519327575,"매주 일요일, 법정공휴일","월 09:00~20:00, 화~목 09:00~19:00, 금 09:00~20:00, 토 09:00~14:00"
개꿀이발소,미용,36.80447002,127.1396,충청남도 천안시 동남구 봉정로 28,50714270245,"매주 토, 일",월~금 09:00~20:00
개꿈꾸는고양이,반려동물용품,37.21485489,126.973354,경기도 화성시 봉담읍 와우로 23-31,7087795959,연중무휴,매일 10:00~22:00
개꿈꾸는고양이 당진점,반려동물용품,36.89821148,126.628771,충청남도 당진시 서해로 5772,413537907,,
개끌린다면,미용,36.99368666,127.096396,경기도 평택시 평택3로56번길 41,,,
개끌림,미용,35.20741229,126.897376,광주광역시 북구 설죽로 535-1,50714040852,매주 월요일,매일 10:00~19:00
개끗하개,미용,37.58716056,127.076651,서울특별시 중랑구 겸재로3길 28,50713837473,연중무휴,매일 00:00~24:00
개나리봄약국,동물약국,37.49923554,127.048421,서울특별시 강남구 역삼로 310,25018284,"매주 일요일, 법정공휴일","월~금 09:00~19:00, 토 09:00~14:00"
개나리약국,동물약국,35.10018999,128.994025,부산광역시 사하구 낙동대로 207-1,512942250,"매주 일요일, 법정공휴일","월~금 09:00~21:00, 토 09:00~14:00"
개나리펫살롱,미용,35.85686735,127.11915,전라북도 전주시 덕진구 송천1길 13,50713175420,매주 일요일,월~토 10:00~18:00
개날라리,반려동물용품,37.41168458,126.678086,인천광역시 연수구 샘말로8번길 8,328129452,연중무휴,매일 10:30~20:30
개날라리 가정점,반려동물용품,37.52039328,126.673318,인천광역시 서구 가정로 398,325751828,연중무휴,매일 10:00~22:00
개냥아치,미용,37.54770629,126.733633,인천광역시 계양구 계양산로 161,50713526270,연중무휴,매일 10:00~21:00
개냥이,미용,35.84921297,129.217336,경상북도 경주시 원화로 320,547421219,연중무휴,매일 00:00~24:00
개냥이아울렛 관평점,반려동물용품,36.43117946,127.389388,대전광역시 유성구 테크노1로 20,426214111,연중무휴,매일 09:00~21:00
개냥이아울렛 구암점,반려동물용품,36.34882844,127.333321,대전광역시 유성구 월드컵대로 299,423452258,연중무휴,매일 09:00~21:00
개냥조아,반려동물용품,34.8836115,128.62911,경상남도 거제시 고현로14길 59,556372615,"1, 3번째 일요일",매일 09:30~21:00
개네집,반려동물용품,36.72198716,127.535653,충청북도 청주시 청원구 내수읍 마산길 72,50713487324,매주 일요일,월~토 11:00~19:30
개님살롱 레이크사이드,미용,37.50627736,127.099388,서울특별시 송파구 송파대로49길 50,50713379887,연중무휴,월~금 07:30~21:30. 토~일 09:00~21:30
개님의상점,반려동물용품,37.42277,126.886946,경기도 광명시 일직로 43,28997892,"매주 토, 일",월~금 09:00~17:00
개다방,카페,33.25935333,126.559774,제주특별자치도 서귀포시 중앙로 166,647330166,매주 화요일,수~월 10:00~18:00
개달당,반려동물용품,37.6886321,126.770142,경기도 고양시 일산서구 탄중로 501,50713531871,"매주 토, 일",월~금 09:30~16:00
개도널사랑한대,미용,35.87282301,127.126331,전라북도 전주시 덕진구 세병2길 21,,"매주 토, 일",월~금 08:00~19:00
개도널사랑해,미용,35.23438912,128.501447,경상남도 창원시 마산회원구 내서읍 삼계10길 52,,"매주 월, 일","화~금 10:00~19:00, 토 10:00~18:00"
개들랜드,카페,35.36273127,129.324224,울산광역시 울주군 서생면 홍골들길 41,522370222,연중무휴,매일 11:00~21:00
개들만찬,반려동물용품,35.17148382,128.822795,경상남도 김해시 율하6로 67,50714224984,매주 일요일,월~토 10:00~19:00
개들의수다,펜션,37.60457184,126.776563,경기도 김포시 고촌읍 은행영사정로51번길 42,319894518,매주 목요일,"월~금 11:00~19:00, 토~일 10:00~19:00"
개들의정원,카페,37.1581927,127.504491,경기도 이천시 설성면 설가로219번길 176,316422373,매주 월요일,화~일 12:00~19:00
개들의집,위탁관리,37.44537008,126.804193,경기도 시흥시 은계중앙로 238,,휴무일 변동,매일 10:30~20:00
개땡큐,미용,35.23356865,128.838179,경상남도 김해시 주촌면 천곡로15번길 1,,,
개떼놀이터,식당,37.65005161,127.190442,경기도 남양주시 진건읍 사릉로280번길 7,315299955,연중무휴,매일 11:00~22:00
개떼놀이터 용인,카페,37.29852289,127.106545,경기도 용인시 기흥구 용구대로2335번길 47,312822355,연중무휴,매일 11:00~24:00
개떼놀이터 인천점,카페,37.57027941,126.708887,인천광역시 계양구 다남로 278,50714131950,연중무휴,매일 11:00~01:00
개라다이스,카페,37.48766129,126.932624,서울특별시 관악구 봉천로 283,50713738222,연중무휴,매일 07:30~20:00
개라상,반려동물용품,37.48500069,126.925552,서울특별시 관악구 관천로 64,50714365995,매주 수요일,목~화 12:00~22:00
개러리아 강남점,미용,37.51446978,127.042934,서울특별시 강남구 선릉로122길 4,7089873000,연중무휴,매일 10:00~20:00
개롱약국,동물약국,37.49795593,127.134215,서울특별시 송파구 오금로 396,50713304609,"매주 일요일, 법정공휴일","월~금 09:00~20:00, 토 09:00~16:00"
개르메스,반려동물용품,37.5355844,126.6454,인천광역시 서구 청라커낼로 300,50714912367,매주 일요일,월~토 10:00~19:00
개를품은남자,미용,35.20203222,128.571401,경상남도 창원시 마산합포구 서성로 51,552232621,연중무휴,매일 10:00~22:00
개리비안베이,펜션,36.75522415,126.211853,충청남도 태안군 소원면 법산길 584-40,50713308189,연중무휴,매일 15:00~11:00
개린이네,카페,37.23167734,127.116283,경기도 용인시 기흥구 고매로43번길 12-23,,연중무휴,매일 11:00~22:30
개린이세상,카페,35.54087333,129.344658,울산광역시 남구 정동로80번길 4,50714797177,연중무휴,매일 08:00~19:00
개린이수제베이커리,반려동물용품,37.62013723,126.711309,경기도 김포시 봉화로 59-10,7076517336,,
개린이집,미용,37.44979129,126.730435,인천광역시 남동구 하촌로 11,324651222,연중무휴,매일 09:00~20:00
개린이집합소,미용,37.50399661,126.711634,인천광역시 부평구 원적로 407,50713921881,연중무휴,매일 08:00~20:00
개릴라독,반려동물용품,37.48879187,126.682291,인천광역시 서구 장고개로275번길 2,,,
개릿뷰티 애견 미용호텔,미용,35.54610329,129.31281,울산광역시 남구 팔등로61번길 7,,,
개명동물병원,동물병원,37.49012558,126.85631,서울특별시 구로구 개봉로 50,226190888,매주 일요일,월~토 10:00~20:00
개모임,미용,37.73777704,127.071906,경기도 의정부시 시민로333번길 25,,연중무휴,매일 10:00~19:00
개모임,카페,35.96888143,126.704299,전라북도 군산시 하나운로 122,634660229,매주 수요일,목~화 09:00~19:00
개묘한스토리,반려동물용품,37.8815412,127.739667,강원도 춘천시 성심로 22-1,,,
개뭉치반려견세터,카페,34.76870746,127.612537,전라남도 여수시 충무로 73,50713176286,연중무휴,매일 08:00~19:00
개미남,미용,37.74963191,127.097791,경기도 의정부시 용민로237번길 8-21,7082857705,추석 당일,"매일 10:00~20:00, 법정공휴일 10:00~20:00"
개미남개미녀,미용,37.51748493,126.671655,인천광역시 서구 원창로 200-1,,매주 토요일,일~금 11:00~19:00
개미애견미용실,미용,35.15507463,128.116524,경상남도 진주시 개양로 100,50713429605,매주 금~일,월~목 10:00~19:00
개미용실,미용,37.3246631,127.96154,강원도 원주시 치악로 1588,337620720,매주 일요일,월~토 10:00~18:00
개미용중,반려동물용품,35.17663923,126.934008,광주광역시 북구 군왕로 174,,매주 일요일,월~토 09:30~18:00
개발소,미용,37.6186272,126.690898,인천광역시 서구 검단로 842,,연중무휴,매일 11:00~19:00
개밥,반려동물용품,37.54521073,126.985206,서울특별시 용산구 소월로20길 30-1,27747114,매주 일요일,"월~금 11:00~20:00, 토 11:00~17:00"
개밥,반려동물용품,35.83273305,127.102324,전라북도 전주시 완산구 세내로 516,,연중무휴,매일 12:00~20:00
개밥도둑 구래점,반려동물용품,37.63633731,126.62239,경기도 김포시 양촌읍 듬박로 96-2,319971197,연중무휴,매일 10:30~21:00
개밥바라기,반려동물용품,36.97324516,127.954278,충청북도 충주시 어림5길 85,438482469,"매주 토, 일",월~금 09:00~18:00
개밥살롱,미용,34.97947328,127.48227,전라남도 순천시 가곡3길 21,617536006,매주 일요일,월~토 09:00~19:00
개밥안주냥,미용,34.90120151,128.645527,경상남도 거제시 연초면 거제대로 4439,556340078,연중무휴,매일 10:00~21:00
개밥의정석,미용,37.01828521,126.916475,경기도 평택시 청북읍 안청로2길 33-70,50713399566,매주 월요일요일,"화~토 11:00~22:00, 일 11:00~20:00"
개밥장수타코네,반려동물용품,37.56267069,126.823606,서울특별시 강서구 마곡서로 101,50713454169,연중무휴,매일 12:00~21:30
개밥주는고양이,미용,36.02411228,129.369845,경상북도 포항시 남구 중앙로122번길 14,50714330096,,
개밥주는고양이 신길점,반려동물용품,37.50306231,126.901044,서울특별시 영등포구 가마산로 394,50714494589,연중무휴,매일 10:00~23:00
개밥집,반려동물용품,35.22496666,129.149277,부산광역시 해운대구 아랫반송로27번길 13,517101541,연중무휴,매일 00:00~24:00
개밥파는고양이,반려동물용품,36.34739722,127.395489,대전광역시 서구 문정로 148,422267000,연중무휴,매일 00:00~24:00
개밥파는고양이 갈마점,반려동물용품,36.34773374,127.369176,대전광역시 서구 갈마로 52,425251530,연중무휴,매일 00:00~24:00
개밥파는고양이 계룡점,반려동물용품,36.28916577,127.239788,충청남도 계룡시 엄사면 번영로 52,7048332579,연중무휴,매일 00:00~24:00
개밥파는고양이 괴정점,반려동물용품,36.33849418,127.385495,대전광역시 서구 도솔로 350,50713661530,연중무휴,매일 00:00~24:00
개밥파는고양이 구래점,반려동물용품,37.64502768,126.619354,경기도 김포시 김포한강10로133번길 156,50713420807,연중무휴,매일 00:00~24:00
개밥파는고양이 까치산역점,반려동물용품,37.53308607,126.847619,서울특별시 강서구 강서로16길 23,226067912,연중무휴,매일 00:00~24:00
개밥파는고양이 마곡점,반려동물용품,37.5622651,126.819165,서울특별시 강서구 공항대로 103,226618440,연중무휴,매일 00:00~24:00
개밥파는고양이 망원점,반려동물용품,37.5589818,126.903264,서울특별시 마포구 월드컵로29길 57,50713379472,연중무휴,매일 00:00~24:00
개밥파는고양이 송촌점,반려동물용품,36.36462123,127.439741,대전광역시 대덕구 동춘당로 83,50714689305,연중무휴,매일 00:00~24:00
개밥파는고양이 신성점,반려동물용품,36.38750688,127.350333,대전광역시 유성구 신성로72번길 59,428671530,연중무휴,매일 00:00~24:00
개밥파는고양이 아름점,반려동물용품,36.51225176,127.249865,세종특별자치시 보듬3로 104-19,449981339,연중무휴,매일 00:00~24:00
개밥파는고양이 용두점,반려동물용품,36.32407103,127.414492,대전광역시 중구 선화로22번길 25,422537777,연중무휴,매일 00:00~24:00
개밥파는고양이 원내점,반려동물용품,36.3000454,127.318236,대전광역시 유성구 원내로 23,425411531,연중무휴,매일 00:00~24:00
개밥파는고양이 유천점,반려동물용품,36.32218788,127.397093,대전광역시 중구 평촌로 92-1,50714726600,연중무휴,매일 00:00~24:00
개밥파는고양이 은평신사점,반려동물용품,37.59923073,126.909399,서울특별시 은평구 갈현로1길 7,,연중무휴,매일 00:00~24:00
개밥파는고양이 일산백석점,반려동물용품,37.63929643,126.787923,경기도 고양시 일산동구 경의로 25-37,50713493643,연중무휴,매일 00:00~24:00
개밥파는고양이 전민점,반려동물용품,36.39720404,127.404588,대전광역시 유성구 엑스포로 457,50713041008,연중무휴,매일 00:00~24:00
개밥파는고양이 충주점,반려동물용품,36.98658893,127.920791,충청북도 충주시 칠금11길 30,50714390074,연중무휴,매일 00:00~24:00
개밥파는고양이 하남미사점,반려동물용품,37.56201736,127.19033,경기도 하남시 미사강변중앙로 173,317948337,연중무휴,매일 00:00~24:00
개밥파는남자,반려동물용품,37.78458039,127.029118,경기도 양주시 부흥로 1383,50714612256,연중무휴,매일 09:00~21:00
개밥포차,반려동물용품,37.87976337,127.033074,경기도 양주시 은현면 선하로 61,50713790243,연중무휴,매일 10:00~20:00
개밥하우스,미용,37.66555154,126.81597,경기도 고양시 일산동구 고양대로 1139,319662777,"설, 추석 당일",매일 09:30~21:30
개밥하우스,반려동물용품,36.08616821,126.685081,충청남도 서천군 서천읍 서천로 211,419524582,연중무휴,매일 08:00~19:00
개밥하우스,반려동물용품,36.42630441,127.388067,대전광역시 유성구 관들1길 21,50714030102,매주 일요일,월~토 10:00~20:00
개밥하우스 가좌시장점,반려동물용품,37.4936257,126.684692,인천광역시 서구 원적로96번길 25,325839991,"1, 3째주 목요일",매일 09:00~21:00
개밥하우스 공항점,반려동물용품,37.56142953,126.81304,서울특별시 강서구 공항대로 49-2,226662220,연중무휴,매일 10:00~22:00
개밥하우스 목동5호점,반려동물용품,37.54014367,126.864055,서울특별시 양천구 등촌로 114,226432777,,
개밥하우스 신월점,반려동물용품,37.53771643,126.826727,서울특별시 양천구 남부순환로 326,226922777,"2, 4째주 일요일, 법정공휴일",매일 10:00~21:00
개벤져스,미용,37.64769744,127.23618,경기도 남양주시 경춘로1286번안길 4-15,315949669,연중무휴,매일 10:00~19:00
개봉동물병원,동물병원,37.50343286,126.851116,서울특별시 구로구 고척로 157,226155014,매주 일요일,월~토 10:00~21:00
개빕주는여자,위탁관리,35.20358777,126.827111,광주광역시 광산구 하완길 71,50713840929,연중무휴,월~일 12:00~20:00
개빵공방,반려동물용품,35.10686272,129.008039,부산광역시 사하구 대티로 82,50713327503,연중무휴,매일 15:00~20:00
개빵집,반려동물용품,37.52365656,126.898193,서울특별시 영등포구 양산로 138,50713628728,매주 월요일,"화~금 10:00~22:00, 토~일 11:00~21:00"
개사랑해,미용,35.14823301,129.02175,부산광역시 부산진구 엄광로 51,50714411241,매주 일요일,월~토 09:00~19:00
개상전 애견카페,카페,37.61021895,126.929202,서울특별시 은평구 통일로 727-5,7044041212,연중무휴,매일 11:00~21:00
개성있개,미용,35.23908245,128.862011,경상남도 김해시 경원로 9,50713280948,연중무휴,매일 09:00~19:00
개성있냥,미용,37.49303252,127.131612,서울특별시 송파구 오금로46길 62,50713732968,매주 일요일,월~토 10:00~19:00
개수작,미용,35.94362735,126.692046,전라북도 군산시 황룡로 65,634620070,매주 화요일,수~월 09:30~19:30
개순이상점,반려동물용품,37.5386462,127.208686,경기도 하남시 하남대로787번길 37,,"매주 일요일, 1번째 월요일",월~토 11:00~21:00
개스코트,미용,35.23386119,128.860344,경상남도 김해시 우암로 35-1,,연중무휴,매일 10:00~22:00
개스타하우스,카페,37.70055446,126.800071,경기도 고양시 일산동구 진밭로 7-29,,매주 수요일,목~화 10:00~20:00
개스트 애견카페,카페,34.97222969,126.986406,전라남도 화순군 한천면 용암길 48-87,,매주 화요일,수~월 11:00~19:00
개스트살롱,미용,37.37517035,126.958132,경기도 안양시 동안구 경수대로584번길 17,50713407239,매주 토요일,금~일 11:00~20:00
개스트푸드,반려동물용품,35.08913965,128.803158,경상남도 창원시 진해구 신항동로 228,50714851272,휴무일 변동,매일 11:00~20:00
개스트하우스,반려동물용품,37.3008951,126.87272,경기도 안산시 상록구 각골로 127,314102823,매주 일요일,월~토 10:00~21:00
개스트하우스,미용,37.11833193,127.639876,충청북도 음성군 감곡면 장감로132번길 25,50713255903,매주 화요일,수~월 10:00~19:00
개스트하우스,미용,36.66025959,127.473635,충청북도 청주시 청원구 율천북로13번길 3,50713315972,매주 월요일,화~일 10:00~20:00
개스트하우스,카페,36.90104791,126.631978,충청남도 당진시 우두로 9,413523542,매주 화요일,수~월 11:00~22:00
개식구,미용,36.88927454,126.636852,충청남도 당진시 무수동로 85,50713114056,"1, 3째주 일요일",매일 12:00~20:30
개심사,여행지,36.74690048,126.589969,충청남도 서산시 운산면 개심사로 321-86,416882256,연중무휴,매일 00:00~24:00
개아저씨,반려동물용품,37.72991952,126.747254,경기도 파주시 가재울로94번길 21,319418828,연중무휴,"월~토 10:30~21:00, 일 11:00~21:00"
개안네,미용,35.20236117,129.077379,부산광역시 동래구 여고로135번길 70,,연중무휴,매일 09:00~20:00
개엄마,미용,37.48552868,126.9106,서울특별시 관악구 신사로 70,28557459,연중무휴,매일 10:00~20:00
개엄마들의잡화점,반려동물용품,35.83573485,128.618631,대구광역시 수성구 들안로14길 32,50714171294,매주 토~일,월~금 12:00~19:00
개예쁨,미용,37.72232922,126.73923,경기도 파주시 산내로7번길 25-17,50713266061,연중무휴,매일 09:00~20:00
개옹 구미점,반려동물용품,36.12984125,128.333782,경상북도 구미시 구미중앙로15길 19,50713371991,"2, 4, 5째주 일요일","매일 13:00~20:00, 일, 법정공휴일 13:00~19:00"
개와고양이의생각,반려동물용품,37.62505699,127.071204,서울특별시 노원구 동일로191길 32,29771220,연중무휴,매일 10:00~21:00
개와냥이동물병원,동물병원,37.61021895,126.929202,서울특별시 은평구 통일로 727-5,23527275,연중무휴,"월~토 10:00~19:00, 법정공휴일 10:00~18:00"
개와집,반려동물용품,35.86213784,129.217191,경상북도 경주시 용담로 38,50713563164,매주 일요일,월~토 12:00~21:00
개운하개,반려동물용품,35.94551911,128.57165,대구광역시 북구 동암로37길 26,,연중무휴,매일 10:00~21:00
개운하개,반려동물용품,35.13237687,126.893611,광주광역시 남구 회재로1200번길 8,626743533,"매주 수, 목",금~화 10:00~19:00
개운한날,미용,35.13065514,129.046346,부산광역시 동구 수정동로 29-1,50714382287,매주 월요일,화~일 11:00~20:00
개울가 오토 캠핑장,펜션,37.60300317,127.494925,경기도 가평군 설악면 유명로 654-58,315847958,연중무휴,매일 13:00~11:00
개웃는날,미용,36.29915121,127.319229,대전광역시 유성구 진잠로78번길 58,423228750,매주 일요일,월~토 09:30~18:00
개이득,반려동물용품,35.18974316,128.07411,경상남도 진주시 진양호로 438-1,7040429962,,
개이득 애견카페,카페,36.15096813,128.315596,경상북도 구미시 봉곡남로 127,544444430,매주 월요일,화~일 11:00~21:00
개이득 화성점,반려동물용품,37.12572704,126.921353,경기도 화성시 향남읍 행정죽전로1길 29,313549115,매주 일요일,월~토 11:00~21:30
개이발소,미용,37.83309864,127.148703,경기도 포천시 소흘읍 태봉로 235,,"매주 일요일, 법정공휴일","월~금 11:00~17:00, 토 11:00~15:00"
개이버,반려동물용품,37.51577851,126.892358,서울특별시 영등포구 도림로 462,28656895,,
개이뻐,미용,37.89868543,127.204789,경기도 포천시 중앙로 144,50714063188,연중무휴,매일 10:00~19:00
개이뿌개,미용,37.43748006,126.67961,인천광역시 미추홀구 소성로 292,327108767,매주 화요일,수~월 10:00~19:00
개이쁜날,미용,37.09002164,127.47733,경기도 안성시 일죽면 금일로 430,,연중무휴,매일 10:00~20:00
개이쁜냥이,반려동물용품,35.81135086,128.548945,대구광역시 달서구 상인로 41-1,50713927558,"매주 토, 일",월~금 10:00~20:00
개이쁨,미용,37.19352227,127.066605,경기도 화성시 10용사3길 16,,"매주 일요일, 법정공휴일, 휴무일 변동","월~금 09:00~18:00, 토 09:00~16:00"
개이쁨샵,미용,35.10529471,128.751466,경상남도 창원시 진해구 웅천동로106번길 45,,연중무휴,매일 09:00~19:00
개이커리,반려동물용품,37.33091205,126.827239,경기도 안산시 단원구 삼일로 453,,"매주 화요일, 마지막주 일요일",수~월 12:00~19:30
개이크,반려동물용품,37.65312484,126.685691,경기도 김포시 김포한강1로 254,3180490247,매주 일요일,월~토 11:00~19:00
개인공간,카페,36.39024444,127.217441,충청남도 공주시 반포면 도예촌길 74-13,50713033484,연중무휴,매일 11:00~21:00
개인공간,펜션,35.89387536,129.240686,경상북도 경주시 천북면 산업로 4694-23,,연중무휴,매일 15:00~11:00
개인공간,미용,33.51587827,126.589025,제주특별자치도 제주시 매촌1길 3-1,50713424056,매주 일요일,"월~금 08:00~19:00, 토 10:00~19:00"
개인의공간쉼,미용,37.51005307,126.671281,인천광역시 서구 신석로 83,50713764818,매주 일요일,월~토 10:00~20:00
개인취향,반려동물용품,37.55987812,127.085145,서울특별시 광진구 긴고랑로26길 14,50713174608,연중무휴,매일 10:00~20:00
개자리펫할인마트,반려동물용품,37.84164602,127.066541,경기도 양주시 화합로 1421,3180830111,"매주 토, 일",월~금 10:00~21:00
개점빵,반려동물용품,35.48678998,129.430659,울산광역시 동구 등대5길 26-1,50713727773,매주 일요일,월~토 10:00~19:00
개정촌,카페,37.34500872,126.737047,경기도 시흥시 중심상가3길 11,7077631105,매주 수요일,목~화 12:00~21:00
개조아샵,미용,36.89229796,126.627128,충청남도 당진시 당진중앙2로 25-8,50713184415,매주 토요일,"월~금, 일 10:00~19:00"
개좋다냥,미용,34.95664559,127.535507,전라남도 순천시 왕궁중앙길 63,50714098576,연중무휴,매일 10:00~20:00
개좋은세상,미용,37.66187591,126.765902,경기도 고양시 일산동구 무궁화로 11,319140945,매주 월요일,화~일 11:00~21:00
개중목욕탕,미용,37.86530289,127.753835,강원도 춘천시 우석로 79,50714419984,연중무휴,"월,수,금,토 09:00~18:00, 화,목,일 09:00~22:00"
개짱,반려동물용품,36.61712526,127.442508,충청북도 청주시 흥덕구 서경로20번길 9,,"매주 토, 일",월~금 10:00~16:00
개차반,카페,34.81067227,126.394927,전라남도 목포시 양을로220번길 11-2,,연중무휴,매일 12:00~19:00
개코네 길동점,반려동물용품,37.54279749,127.144502,서울특별시 강동구 양재대로124길 41,24767700,,
개키우는언니,반려동물용품,35.16527437,129.171178,부산광역시 해운대구 해운대해변로 394,517469420,매주 일요일,월~토 10:00~18:00
개털깍는강산이네,미용,35.24129606,128.884592,경상남도 김해시 가야로 445,50713109977,매주 일요일,월~토 10:00~19:00
개털깎는남자,카페,37.39151118,126.944251,경기도 안양시 동안구 경수대로 805,313851182,매주 월요일,화~일 12:00~19:00
개털깎는언니쓰,미용,35.48480614,129.417583,울산광역시 동구 문재7길 26,50713313900,연중무휴,매일 10:00~20:00
개토피아,카페,37.63295849,126.831962,경기도 고양시 덕양구 화신로272번길 48,7088306122,연중무휴,매일 13:00~21:00
개판양이판,반려동물용품,37.44848264,126.69083,인천광역시 미추홀구 인하로 381,,"법정공휴일, 매주 토, 일",월~금 10:00~17:00
개판오분전,반려동물용품,37.30140577,127.655909,경기도 여주시 신륵로 55,318842391,"매주 월, 화, 수, 목, 금",토~일 09:00~18:00
개판오븐점,반려동물용품,37.76127376,128.873101,강원도 강릉시 하슬라로 125,50713740246,매주 일요일,월~토 10:00~19:00
개판카페,반려동물용품,37.47692805,126.952063,서울특별시 관악구 관악로 133,50713413573,매주 토요일,일~금 10:00~21:00
개팔자상팔자,반려동물용품,37.3600291,126.942188,경기도 군포시 쟁골2길 16,313972277,매주 일요일,월~토 10:00~19:30
개팔자상팔자,미용,35.52189033,129.334861,울산광역시 남구 수암로 276-1,522577006,연중무휴,매일 09:00~18:00
개팔자상팔자펜션,펜션,37.61005847,127.684292,강원도 홍천군 서면 한서로 2278-9,50713646599,연중무휴,매일 15:00~11:00
개편한세상,반려동물용품,37.65910078,127.014143,서울특별시 도봉구 삼양로 628,264010010,매주 일요일,월~토 10:00~20:00
개편한세상,반려동물용품,37.71066379,126.738245,경기도 파주시 동패로63번길 48-21,319419673,연중무휴,"월~금 10:00~19:00, 토~일 10:00~17:00"
개편한세상,미용,37.73765133,127.092026,경기도 의정부시 승지로 27,318525440,연중무휴,매일 10:00~20:00
개편한세상,위탁관리,37.46288066,126.708913,인천광역시 남동구 석촌로 27,,연중무휴,매일 09:30~19:00
개편한세상,반려동물용품,37.02308381,127.861925,충청북도 충주시 중앙탑면 중앙탑길 150,437232370,연중무휴,매일 09:00~18:00
개편한세상,미용,36.69318339,126.833318,충청남도 예산군 예산읍 산성공원1길 36,413352333,매주 일요일,월~토 09:00~20:00
개포 한 동물병원,동물병원,37.47425532,127.049823,서울특별시 강남구 논현로10길 14,25757581,연중무휴,"월~토, 법정공휴일 10:00~19:00"
개포동물병원,동물병원,37.48930721,127.068842,서울특별시 강남구 개포로 512,234127582,"매주 토, 일",월~금 10:00~21:00
개포동물병원,동물병원,37.54525498,127.317689,경기도 양평군 양서면 양수로 170,317717278,매주 일요일,"월~화 09:30~19:00, 수 09:30~18:30, 목~금 09:30~19:00, 토 09:30~18:30"
개포별빛동물병원,동물병원,37.47643765,127.04631,서울특별시 강남구 논현로 70,25737582,연중무휴,"월~금 09:00~20:00, 토 10:00~20:00, 일, 법정공휴일 10:00~18:00"
개포이화약국,동물약국,37.49109411,127.074164,서울특별시 강남구 영동대로 22,24597320,매주 일요일,"월~금 09:00~19:00, 토 09:00~14:00"
개폼,미용,37.43458529,126.751243,인천광역시 남동구 장아산로190번길 10-2,327165997,매주 화요일,"월, 수~일 10:00~19:00"
개풍약국,동물약국,36.03482467,129.365687,경상북도 포항시 북구 죽도시장길 2,542479500,연중무휴,매일 07:00~19:00
개프탑라운지,카페,36.66615033,127.450476,충청북도 청주시 흥덕구 송화로 156,50713440733,매주 수요일,"월~목 11:00~22:00, 금~일 11:00~23:30"
개화예술공원,여행지,36.3133478,126.658555,,419316789,연중무휴,매일 09:00~18:00
갤러리약국,동물약국,37.51007864,127.027198,서울특별시 강남구 학동로20길 55,262275578,매주 일요일,월~토 09:00~22:30
갤러리약국,동물약국,35.86089293,128.592243,대구광역시 중구 중앙대로 309,532563651,"매주 일요일, 법정공휴일",월~토 09:00~23:00
갤러리펫,반려동물용품,37.59355955,126.658861,인천광역시 서구 원당대로507번안길 16-2,7073743164,연중무휴,매일 10:00~17:00
갤럭시펫,반려동물용품,37.19902851,127.113161,경기도 화성시 동탄대로시범길 134,50714481134,연중무휴,매일 11:00~21:00
갯골생태공원,여행지,37.38979099,126.781255,경기도 시흥시 동서로 287,314886900,연중무휴,매일 00:00~24:00
갱스터도그 용인점,미용,37.29787288,127.080146,경기도 용인시 수지구 광교호수로378번길 4-6,312125077,연중무휴,매일 10:00~22:00
개in공간,미용,34.88683042,128.617969,경상남도 거제시 고현로 41,557363674,연중무휴,매일 10:00~18:00
개in샵,미용,37.00504116,127.101202,경기도 평택시 비전6길 23,50714691054,매주 화요일,"매일 10:00~22:00, 법정공휴일 10:00~22:00"
개s라인,미용,34.75495555,126.461329,전라남도 영암군 삼호읍 대불주거로1길 82,614635559,연중무휴,매일 10:00~20:00
거부기 동물병원,동물병원,37.66187591,126.765902,경기도 고양시 일산동구 무궁화로 11,50713881461,연중무휴,매일 09:30~19:00
거북당약국,동물약국,37.64204221,126.678524,경기도 김포시 김포한강2로23번길 10,23720744,,
거북선공원,여행지,34.76059056,127.666721,전라남도 여수시 거북선공원2길 10,616594627,연중무휴,매일 00:00~24:00
거북시장약국,동물약국,37.50329183,126.672694,인천광역시 서구 거북로 97,325756881,연중무휴,"월~금 08:30~21:00, 토 08:30~19:00, 일 09:00~19:00"
거북이 약국,동물약국,35.68955942,128.453692,대구광역시 달성군 현풍읍 테크노대로 61,50713747191,"매주 화, 수",목~월 09:00~22:00
거북이약국,동물약국,36.03206951,129.365766,경상북도 포항시 북구 중흥로 340,542532716,연중무휴,"매일 09:00~22:00, 법정공휴일 11:00~22:00"
거산동물병원,동물병원,36.87858326,126.752762,충청남도 당진시 신평면 거산3거리길 4,413632550,매주 일요일,"월~금 09:00~19:00, 토 09:00~15:00"
거성푸드,반려동물용품,36.95734832,127.893074,충청북도 충주시 송림길 62,438545401,"매주 토, 일",월~금 09:00~18:00
거울보는 강아지,미용,35.21499999,128.7053,경상남도 창원시 성산구 대암로 80,,,
거제 도그펜션,펜션,34.81788763,128.675148,경상남도 거제시 일운면 북병산로 475-9,,연중무휴,매일 15:00~11:00
거제 블루캐슬 애견펜션,펜션,34.79099186,128.665195,경상남도 거제시 일운면 거제대로 1477,50713622918,연중무휴,매일 15:00~11:00
거제동물메디컬센터,동물병원,34.89364126,128.640757,경상남도 거제시 수양로 456-12,556327582,매주 일요일,"월~금 09:30~19:00, 토 변동"
거제동물병원,동물병원,35.18153329,129.069999,부산광역시 연제구 거제대로 146,518628668,,
거제로약국,동물약국,34.88885402,128.623196,경상남도 거제시 거제중앙로 1914,556326872,법정공휴일,"월~금 09:00~21:30, 토 09:00~21:30, 일 09:00~21:30"
거제문화예술회관,문예회관,34.86717837,128.723358,경상남도 거제시 장승로 145,556801000,전시공연에 따라 변동,전시공연에 따라 변동
거제민속박물관,박물관,34.95011436,128.677436,경상남도 거제시 연초면 대금산로 339-7,556373722,매주 일요일,화~일 09:30~16:30
거제박물관,박물관,34.89403977,128.686211,경상남도 거제시 거제대로 3791,556876790,"1월1일, 설, 추석 당일, 매주 월요일",화~일 09:00~18:00
거제봄날펜션,펜션,34.79255804,128.581313,경상남도 거제시 동부면 가배오송길 139,,연중무휴,매일 15:00~11:00
거제애견미용학원,미용,34.89264182,128.61313,경상남도 거제시 장평로6길 15,556343664,"매주 토, 일",월~금09:00~22:00
거제어촌민속전시관,박물관,34.83369365,128.701885,경상남도 거제시 일운면 지세포해안로 41,556398270,매주 월요일,화~일 09:00~18:00
거제포로수용소유적공원박물관,박물관,34.87637998,128.62537,경상남도 거제시 계룡로 61,556390625,"설, 추석 당일, 4째주 월요일","매일 3~10월 09:00~18:00, 11~2월 09:00~17:00"
거제프라자약국,동물약국,34.88915235,128.622946,경상남도 거제시 거제중앙로 1916-1,556381351,연중무휴,"월~수 09:00~24:00, 목~금 09:00~22:00, 토~일 09:00~24:00, 법정공휴일 09:00~24:00"
거제해돋이 애견펜션,펜션,34.99896429,128.692509,경상남도 거제시 장목면 신촌길 13-11,50714672038,연중무휴,매일 15:00~11:00
거창군문화센터,문예회관,35.67430045,127.910313,경상남도 거창군 거창읍 수남로 2181,559408450,전시공연에 따라 변동,전시공연에 따라 변동
거창박물관,박물관,35.67430045,127.910313,경상남도 거창군 거창읍 수남로 2181,559408740,"1월1일, 설, 추석 당일, 매주 월요일","화~일 11~2월 09:00~17:00, 3~12월 09:00~18:00"
거창축산업협동조합동물병원,동물병원,35.68453109,127.921392,경상남도 거창군 거창읍 대평3길 38,559449976,"매주 토, 일",월~금 09:00~16:00
건 약국,동물약국,35.84216059,128.762589,경상북도 경산시 압량읍 대학로 388,536385534,"매주 일요일, 법정공휴일","월~금 09:00~19:00, 토 09:00~13:30"
건강100세세종약국,동물약국,37.48055206,126.791581,경기도 부천시 호현로489번길 32,323466166,"매주 일요일, 법정공휴일","월~금 08:30~20:00, 토 08:30~13:00"
건강과 행복이 열리는 약국,동물약국,37.49440618,127.015132,서울특별시 서초구 서초대로 307,25913399,연중무휴,"월~토 09:00~22:00, 일 13:00~21:30"
건강과행복이열리는약국,동물약국,37.6492349,127.076974,서울특별시 노원구 한글비석로 242,29339696,법정공휴일,"월~토 09:00~20:00, 일 12:00~19:00"
건강나누리약국,동물약국,37.45092317,126.691023,인천광역시 미추홀구 인주대로 489,324221117,"매주 일요일, 법정공휴일","월~금 09:00~21:00, 토 09:00~15:30"
건강나눔약국,동물약국,37.29683104,127.012937,경기도 수원시 장안구 송정로 146,312558517,"매주 일요일, 법정공휴일","월~금 08:00~19:00, 토 08:00~14:00"
건강나라약국,동물약국,37.42452673,126.645636,인천광역시 연수구 독배로40번길 11,328589012,매주 일요일,"월~금 09:00~21:00, 토 08:30~19:00, 법정공휴일 09:00~13:00"
건강누리약국,동물약국,37.29176853,126.997859,경기도 수원시 장안구 수성로245번길 60,312425979,"매주 일요일, 법정공휴일","월~금 09:00~20:00, 토 09:00~19:00"
건강당약국,동물약국,37.90019173,127.052958,경기도 동두천시 큰시장로 43,318647575,연중무휴,"월~일, 법정공휴일 08:30~22:00"
건강도우미약국,동물약국,37.52782875,126.73014,인천광역시 계양구 주부토로 374,325437302,매주 일요일,"월~금 09:00~22:00, 토 09:00~19:00, 법정공휴일 11:00~18:00"
건강도움약국,동물약국,35.93679619,126.961842,전라북도 익산시 중앙로 139,50714410157,매주 일요일,"월~금 09:00~18:00, 토 09:00~13:00"
